[
  {
    "_id": "57ab8c5b1eff02897b163ed1",
    "Scientific name": "Tachybaptus rufolavatus",
    "date": "1985-01-01T00:00:00Z",
    "Range": "Madagascar",
    "Description": "--",
    "Type": "air",
    "latitude": "-18.766947",
    "longitude": "46.869107",
    "latlong": "-18.76, 46.869107",
    "continent": "Africa",
    "country": "MG"
  },
  {
    "_id": "57ab8c5b1eff02897b163ed2",
    "Scientific name": "Nesillas aldabrana",
    "date": "1983-01-01T00:00:00Z",
    "Range": "Seychelles",
    "Description": "--",
    "Type": "air",
    "latitude": "-4.65",
    "longitude": "55.47",
    "latlong": "-4.65,55.47",
    "continent": "Africa",
    "country": "SC"
  },
  {
    "_id": "57ab8c5b1eff02897b163ed3",
    "Scientific name": "Mundia elpenor",
    "date": "1656-01-01T00:00:00Z",
    "Range": "United Kingdom (Ascension)",
    "Description": "--",
    "Type": "air",
    "latitude": "-15.98",
    "longitude": "-5.701",
    "latlong": "-15.9,-5.701",
    "continent": "Africa",
    "country": "SH"
  },
  {
    "_id": "57ab8c5b1eff02897b163ed4",
    "Scientific name": "Nycticorax olsoni",
    "date": "1600-01-01T00:00:00Z",
    "Range": "United Kingdom (Ascension)",
    "Description": "--",
    "Type": "air",
    "latitude": "-15.98",
    "longitude": "-5.701",
    "latlong": "-15.9,-5.701",
    "continent": "Africa",
    "country": "SH"
  },
  {
    "_id": "57ab8c5b1eff02897b163ed5",
    "Scientific name": "Lophopsittacus mauritianus",
    "date": "1680-01-01T00:00:00Z",
    "Range": "Mauritius",
    "Description": "--",
    "Type": "air",
    "latitude": "-20.34",
    "longitude": "57.55",
    "latlong": "-20.3,57.55",
    "continent": "Africa",
    "country": "MU"
  },
  {
    "_id": "57ab8c5b1eff02897b163ed6",
    "Scientific name": "Haematopus meadewaldoi",
    "date": "1940-01-01T00:00:00Z",
    "Range": "Spain (Canary Islands)",
    "Description": "--",
    "Type": "air",
    "latitude": "28.29",
    "longitude": "-16.62",
    "latlong": "28.29,-16.62",
    "continent": "Europe",
    "country": "ES"
  },
  {
    "_id": "57ab8c5b1eff02897b163ed7",
    "Scientific name": "Coturnix gomerae",
    "date": "Unkn-01-01T00:00:00Zown",
    "Range": "United Kingdom (Saint Helena)",
    "Description": "--",
    "Type": "air",
    "latitude": "-15.98",
    "longitude": "-5.71",
    "latlong": "-15.9,-5.71",
    "continent": "Africa",
    "country": "SH"
  },
  {
    "_id": "57ab8c5b1eff02897b163ed8",
    "Scientific name": "Dysmoropelia dekarchiskos",
    "date": "Afte-01-01T00:00:00Zr 1502",
    "Range": "United Kingdom (Saint Helena)",
    "Description": "--",
    "Type": "air",
    "latitude": "-15.98",
    "longitude": "-5.71",
    "latlong": "-15.9,-5.71",
    "continent": "Africa",
    "country": "SH"
  },
  {
    "_id": "57ab8c5b1eff02897b163ed9",
    "Scientific name": "Upupa antaios",
    "date": "Earl-01-01T00:00:00Zy 16th century",
    "Range": "United Kingdom (Saint Helena)",
    "Description": "--",
    "Type": "air",
    "latitude": "-15.98",
    "longitude": "-5.71",
    "latlong": "-15.9,-5.71",
    "continent": "Africa",
    "country": "SH"
  },
  {
    "_id": "57ab8c5b1eff02897b163eda",
    "Scientific name": "Porzana astrictocarpus",
    "date": "Afte-01-01T00:00:00Zr 1502",
    "Range": "United Kingdom (Saint Helena)",
    "Description": "--",
    "Type": "air",
    "latitude": "-15.98",
    "longitude": "-5.71",
    "latlong": "-15.9,-5.71",
    "continent": "Africa",
    "country": "SH"
  },
  {
    "_id": "57ab8c5b1eff02897b163edb",
    "Scientific name": "Psittacula wardis",
    "date": "1886-01-01T00:00:00Z",
    "Range": "Seychelles",
    "Description": "--",
    "Type": "air",
    "latitude": "-4.6",
    "longitude": "55.47",
    "latlong": " -4.6, 55.47",
    "continent": "empty",
    "country": "empty"
  },
  {
    "_id": "57ab8c5b1eff02897b163edc",
    "Scientific name": "Bulweria bifax",
    "date": "Afte-01-01T00:00:00Zr 1502",
    "Range": "United Kingdom (Saint Helena)",
    "Description": "--",
    "Type": "air",
    "latitude": "-15.98",
    "longitude": "-5.71",
    "latlong": "-15.9,-5.71",
    "continent": "Africa",
    "country": "SH"
  },
  {
    "_id": "57ab8c5b1eff02897b163edd",
    "Scientific name": "Gallinula nesiotis",
    "date": "late-01-01T00:00:00Z 19th century",
    "Range": "United Kingdom (Tristan da Cunha)",
    "Description": "--",
    "Type": "air",
    "latitude": "-37.10",
    "longitude": "-12.27",
    "latlong": "-37.1,-12.27",
    "continent": "Africa",
    "country": "SH"
  },
  {
    "_id": "57ab8cde1eff02897b163ede",
    "Scientific name": "Equus africanus atlanticus",
    "date": "300-01-01T00:00:00Z",
    "Range": "North African",
    "Description": "--",
    "Type": "land",
    "latitude": "18.18",
    "longitude": "18.28",
    "latlong": "18.18,18.28",
    "continent": "Africa",
    "country": "TD"
  },
  {
    "_id": "57ab8cde1eff02897b163edf",
    "Scientific name": "Canariomys bravoi and Canariomys tamarani",
    "date": "1500-01-01T00:00:00Z",
    "Range": "Spain (Canary Islands)",
    "Description": "--",
    "Type": "land",
    "latitude": "28.29",
    "longitude": "-16.62",
    "latlong": "28.29,-16.62",
    "continent": "Europe",
    "country": "ES"
  },
  {
    "_id": "57ab8cde1eff02897b163ee0",
    "Scientific name": "Daubentonia robusta",
    "date": "1000-01-01T00:00:00Z",
    "Range": "Madagascar",
    "Description": "--",
    "Type": "land",
    "latitude": "-18.766947",
    "longitude": "46.869107",
    "latlong": "-18.76, 46.869107",
    "continent": "Africa",
    "country": "MG"
  },
  {
    "_id": "57ab8cde1eff02897b163ee1",
    "Scientific name": "Cryptoprocta spelea",
    "date": "Unkn-01-01T00:00:00Zown",
    "Range": "Madagascar",
    "Description": "--",
    "Type": "land",
    "latitude": "-18.766947",
    "longitude": "46.869107",
    "latlong": "-18.76, 46.869107",
    "continent": "Africa",
    "country": "MG"
  },
  {
    "_id": "57ab8cde1eff02897b163ee2",
    "Scientific name": "Hipposideros besaoka",
    "date": "1000-01-01T00:00:00Z0",
    "Range": "Madagascar",
    "Description": "--",
    "Type": "land",
    "latitude": "-18.766947",
    "longitude": "46.869107",
    "latlong": "-18.76, 46.869107",
    "continent": "Africa",
    "country": "MG"
  },
  {
    "_id": "57ab8cde1eff02897b163ee3",
    "Scientific name": "Homotherium",
    "date": "10,0-01-01T00:00:00Z00",
    "Range": "Africa",
    "Description": "--",
    "Type": "land",
    "latitude": "3.29",
    "longitude": "22.52",
    "latlong": "3.29,22.52",
    "continent": "Africa",
    "country": "CD"
  },
  {
    "_id": "57ab8cde1eff02897b163ee4",
    "Scientific name": "Megaladapis",
    "date": "1420-01-01T00:00:00Z",
    "Range": "Madagascar",
    "Description": "--",
    "Type": "land",
    "latitude": "-18.766947",
    "longitude": "46.869107",
    "latlong": "-18.76, 46.869107",
    "continent": "Africa",
    "country": "MG"
  },
  {
    "_id": "57ab8cde1eff02897b163ee5",
    "Scientific name": "Malpaisomys insularis",
    "date": "1500-01-01T00:00:00Z",
    "Range": "Spain (Canary Islands)",
    "Description": "--",
    "Type": "land",
    "latitude": "28.29",
    "longitude": "-16.62",
    "latlong": "28.29,-16.62",
    "continent": "Europe",
    "country": "ES"
  },
  {
    "_id": "57ab8cde1eff02897b163ee6",
    "Scientific name": "Plesiorycteropus",
    "date": "200-01-01T00:00:00Z",
    "Range": "Madagascar",
    "Description": "--",
    "Type": "land",
    "latitude": "-18.766947",
    "longitude": "46.869107",
    "latlong": "-18.76, 46.869107",
    "continent": "Africa",
    "country": "MG"
  },
  {
    "_id": "57ab8cde1eff02897b163ee7",
    "Scientific name": "Hippopotamus",
    "date": "1000-01-01T00:00:00Z",
    "Range": "Madagascar",
    "Description": "--",
    "Type": "land",
    "latitude": "-18.766947",
    "longitude": "46.869107",
    "latlong": "-18.76, 46.869107",
    "continent": "Africa",
    "country": "MG"
  },
  {
    "_id": "57ab8cde1eff02897b163ee8",
    "Scientific name": "Megalotragus",
    "date": "10,0-01-01T00:00:00Z00",
    "Range": "Africa",
    "Description": "--",
    "Type": "land",
    "latitude": "3.29",
    "longitude": "22.52",
    "latlong": "3.29,22.52",
    "continent": "Africa",
    "country": "CD"
  },
  {
    "_id": "57ab8cde1eff02897b163ee9",
    "Scientific name": "Microgale macpheei",
    "date": "100-01-01T00:00:00Z",
    "Range": "Madagascar",
    "Description": "--",
    "Type": "land",
    "latitude": "-18.766947",
    "longitude": "46.869107",
    "latlong": "-18.76, 46.869107",
    "continent": "Africa",
    "country": "MG"
  },
  {
    "_id": "57ab8cde1eff02897b163eea",
    "Scientific name": "Loxodonta africana pharaoensis",
    "date": "300-01-01T00:00:00Z",
    "Range": "North Africa",
    "Description": "--",
    "Type": "land",
    "latitude": "30.30",
    "longitude": "12.39",
    "latlong": "30.30,12.39",
    "continent": "Africa",
    "country": "LY"
  },
  {
    "_id": "57ab8cde1eff02897b163eeb",
    "Scientific name": "Pelorovis",
    "date": "2000-01-01T00:00:00Z",
    "Range": "Africa",
    "Description": "--",
    "Type": "land",
    "latitude": "3.29",
    "longitude": "22.52",
    "latlong": "3.29,22.52",
    "continent": "Africa",
    "country": "CD"
  },
  {
    "_id": "57ab8cde1eff02897b163eec",
    "Scientific name": "Sivatherium",
    "date": "6000-01-01T00:00:00Z",
    "Range": "Africa",
    "Description": "--",
    "Type": "land",
    "latitude": "3.29",
    "longitude": "22.52",
    "latlong": "3.29,22.52",
    "continent": "Africa",
    "country": "CD"
  },
  {
    "_id": "57ab8d111eff02897b163eed",
    "Scientific name": "Ursus arctos crowtheri",
    "date": "1870-01-01T00:00:00Z",
    "Range": "North Africa",
    "Description": "--",
    "Type": "land",
    "latitude": "30.30",
    "longitude": "12.39",
    "latlong": "30.30,12.39",
    "continent": "Africa",
    "country": "LY"
  },
  {
    "_id": "57ab8d111eff02897b163eee",
    "Scientific name": "Bos primigenius",
    "date": "1627-01-01T00:00:00Z",
    "Range": "North Africa || Europe",
    "latitude": "34.1",
    "longitude": "-0.26",
    "latlong": "34.1,-0.26",
    "continent": "empty",
    "country": "empty"
  },
  {
    "_id": "57ab8d111eff02897b163eef",
    "Scientific name": "Hippotragus leucophaeus",
    "date": "1799-01-01T00:00:00Z",
    "Range": "South Africa",
    "Description": "--",
    "Type": "land",
    "latitude": "-29.82",
    "longitude": "23.55",
    "latlong": "-29.8,23.55",
    "continent": "Africa",
    "country": "ZA"
  },
  {
    "_id": "57ab8d111eff02897b163ef0",
    "Scientific name": "Alcelaphus buselaphus buselaphus",
    "date": "1923-01-01T00:00:00Z",
    "Range": "North Africa",
    "Description": "--",
    "Type": "land",
    "latitude": "30.30",
    "longitude": "12.39",
    "latlong": "30.30,12.39",
    "continent": "Africa",
    "country": "LY"
  },
  {
    "_id": "57ab8d111eff02897b163ef1",
    "Scientific name": "Panthera leo melanochaitus",
    "date": "1860-01-01T00:00:00Z",
    "Range": "South Africa",
    "Description": "--",
    "Type": "land",
    "latitude": "-29.82",
    "longitude": "23.55",
    "latlong": "-29.8,23.55",
    "continent": "Africa",
    "country": "ZA"
  },
  {
    "_id": "57ab8d111eff02897b163ef2",
    "Scientific name": "Leptailurus serval serval",
    "date": "Unkn-01-01T00:00:00Zown",
    "Range": "South Africa",
    "Description": "--",
    "Type": "land",
    "latitude": "-29.82",
    "longitude": "23.55",
    "latlong": "-29.8,23.55",
    "continent": "Africa",
    "country": "ZA"
  },
  {
    "_id": "57ab8d111eff02897b163ef3",
    "Scientific name": "Phacochoerus aethiopicus aethiopicus",
    "date": "1900-01-01T00:00:00Z",
    "Range": "South Africa",
    "Description": "--",
    "Type": "land",
    "latitude": "-29.82",
    "longitude": "23.55",
    "latlong": "-29.8,23.55",
    "continent": "Africa",
    "country": "ZA"
  },
  {
    "_id": "57ab8d111eff02897b163ef4",
    "Scientific name": "Ourebia ourebi kenyae",
    "date": "Unkn-01-01T00:00:00Zown",
    "Range": "Kenya",
    "Description": "--",
    "Type": "land",
    "latitude": "0.453",
    "longitude": "37.70",
    "latlong": "0.453,37.70",
    "continent": "Africa",
    "country": "KE"
  },
  {
    "_id": "57ab8d111eff02897b163ef5",
    "Scientific name": "Palaeopropithecus",
    "date": "1500-01-01T00:00:00Z",
    "Range": "Madagascar",
    "Description": "--",
    "Type": "land",
    "latitude": "-18.766947",
    "longitude": "46.869107",
    "latlong": "-18.76, 46.869107",
    "continent": "Africa",
    "country": "MG"
  },
  {
    "_id": "57ab8d111eff02897b163ef6",
    "Scientific name": "Pteropus subniger",
    "date": "Earl-01-01T00:00:00Zy 19th century",
    "Range": "Mauritius and France (Reunion)",
    "Description": "--",
    "Type": "land",
    "latitude": "-20.26",
    "longitude": "57.56",
    "latlong": "-20.2,57.56",
    "continent": "Africa",
    "country": "MU"
  },
  {
    "_id": "57ab8d111eff02897b163ef7",
    "Scientific name": "Equus quagga quagga",
    "date": "Augu-01-01T00:00:00Zst 12, 1883",
    "Range": "Namibia and South Africa",
    "Description": "--",
    "Type": "land",
    "latitude": "-21.68",
    "longitude": "17.75",
    "latlong": "-21.6,17.75",
    "continent": "Africa",
    "country": "NA"
  },
  {
    "_id": "57ab8d111eff02897b163ef8",
    "Scientific name": "Eudorcas rufinaa",
    "date": "1894-01-01T00:00:00Z",
    "Range": "Algeria",
    "Description": "--",
    "Type": "land",
    "latitude": "31.80",
    "longitude": "3.208",
    "latlong": "31.80, 3.208",
    "continent": "Africa",
    "country": "DZ"
  },
  {
    "_id": "57ab8d111eff02897b163ef9",
    "Scientific name": "Kobus leche robertsi",
    "date": "Unkn-01-01T00:00:00Zown",
    "Range": "South Africa",
    "Description": "--",
    "Type": "land",
    "latitude": "-29.82",
    "longitude": "23.55",
    "latlong": "-29.8,23.55",
    "continent": "Africa",
    "country": "ZA"
  },
  {
    "_id": "57ab8d111eff02897b163efa",
    "Scientific name": "Diceros bicornis longipes",
    "date": "1996-01-01T00:00:00Z",
    "Range": "Cameroon",
    "Description": "--",
    "Type": "land",
    "latitude": "4.57",
    "longitude": "12.56",
    "latlong": "4.57,12.56",
    "continent": "Africa",
    "country": "CM"
  },
  {
    "_id": "57ab8d401eff02897b163efb",
    "Scientific name": "Macroscincus coctei",
    "date": "1920-01-01T00:00:00Z",
    "Range": "Cape Verde",
    "Description": "--",
    "Type": "land",
    "latitude": "16.06",
    "longitude": "-22.78",
    "latlong": "16.06,-22.78",
    "continent": "Africa",
    "country": "CV"
  },
  {
    "_id": "57ab8d401eff02897b163efc",
    "Scientific name": "Cylindraspis triserrata",
    "date": "Earl-01-01T00:00:00Zy 18th century",
    "Range": "Mauritius",
    "Description": "--",
    "Type": "land",
    "latitude": "-20.34",
    "longitude": "57.55",
    "latlong": "-20.3,57.55",
    "continent": "Africa",
    "country": "MU"
  },
  {
    "_id": "57ab8d401eff02897b163efd",
    "Scientific name": "Cylindraspis peltastes",
    "date": "1800-01-01T00:00:00Z",
    "Range": "Mauritius",
    "Description": "--",
    "Type": "land",
    "latitude": "-20.34",
    "longitude": "57.55",
    "latlong": "-20.3,57.55",
    "continent": "Africa",
    "country": "MU"
  },
  {
    "_id": "57ab8d401eff02897b163efe",
    "Scientific name": "Tetradactylus eastwoodae",
    "date": "1912-01-01T00:00:00Z",
    "Range": "South Africa",
    "Description": "--",
    "Type": "land",
    "latitude": "-29.82",
    "longitude": "23.55",
    "latlong": "-29.8,23.55",
    "continent": "Africa",
    "country": "ZA"
  },
  {
    "_id": "57ab8d401eff02897b163eff",
    "Scientific name": "Typhlops cariei",
    "date": "Unkn-01-01T00:00:00Zown",
    "Range": "Mauritius",
    "Description": "--",
    "Type": "land",
    "latitude": "-20.34",
    "longitude": "57.55",
    "latlong": "-20.3,57.55",
    "continent": "Africa",
    "country": "MU"
  },
  {
    "_id": "57ab8d401eff02897b163f00",
    "Scientific name": "Didosaurus maurtianus",
    "date": "1650-01-01T00:00:00Z",
    "Range": "Mauritius",
    "Description": "--",
    "Type": "land",
    "latitude": "-20.34",
    "longitude": "57.55",
    "latlong": "-20.3,57.55",
    "continent": "Africa",
    "country": "MU"
  },
  {
    "_id": "57ab8d401eff02897b163f01",
    "Scientific name": "Aparallactus nigriceps",
    "date": "1840-01-01T00:00:00Z",
    "Range": "France (Reunion)",
    "Description": "--",
    "Type": "land",
    "latitude": "-21.14",
    "longitude": "55.65",
    "latlong": "-21.1,55.65",
    "continent": "Africa",
    "country": "RE"
  },
  {
    "_id": "57ab8d401eff02897b163f02",
    "Scientific name": "Phelsuma edwardnewtoni",
    "date": "1917-01-01T00:00:00Z",
    "Range": "Mauritius",
    "Description": "--",
    "Type": "land",
    "latitude": "-20.34",
    "longitude": "57.55",
    "latlong": "-20.3,57.55",
    "continent": "Africa",
    "country": "MU"
  },
  {
    "_id": "57ab8d401eff02897b163f03",
    "Scientific name": "Phelsuma gigas",
    "date": "1842-01-01T00:00:00Z",
    "Range": "Mauritius",
    "Description": "--",
    "Type": "land",
    "latitude": "-20.34",
    "longitude": "57.55",
    "latlong": "-20.3,57.55",
    "continent": "Africa",
    "country": "MU"
  },
  {
    "_id": "57ab8d401eff02897b163f04",
    "Scientific name": "Gallotia simonyi simonyi",
    "date": "1930-01-01T00:00:00Z",
    "Range": "Spain (Canary Islands)",
    "Description": "--",
    "Type": "land",
    "latitude": "28.29",
    "longitude": "-16.62",
    "latlong": "28.29,-16.62",
    "continent": "Europe",
    "country": "ES"
  },
  {
    "_id": "57ab8d401eff02897b163f05",
    "Scientific name": "Bolyeria multocarinata",
    "date": "1975-01-01T00:00:00Z",
    "Range": "Mauritius",
    "Description": "--",
    "Type": "land",
    "latitude": "-20.34",
    "longitude": "57.55",
    "latlong": "-20.3,57.55",
    "continent": "Africa",
    "country": "MU"
  },
  {
    "_id": "57ab8d401eff02897b163f06",
    "Scientific name": "Cylindraspis inepta",
    "date": "Earl-01-01T00:00:00Zy 18th century",
    "Range": "Mauritius",
    "Description": "--",
    "Type": "land",
    "latitude": "-20.34",
    "longitude": "57.55",
    "latlong": "-20.3,57.55",
    "continent": "Africa",
    "country": "MU"
  },
  {
    "_id": "57ab8d401eff02897b163f07",
    "Scientific name": "Cylindraspis vosmaeri",
    "date": "1800-01-01T00:00:00Z",
    "Range": "Mauritius",
    "Description": "--",
    "Type": "land",
    "latitude": "-20.34",
    "longitude": "57.55",
    "latlong": "-20.3,57.55",
    "continent": "Africa",
    "country": "MU"
  },
  {
    "_id": "57ab8d611eff02897b163f08",
    "Scientific Name": "Eriocnemis godini",
    "date": "1850-01-01T00:00:00Z",
    "Range": "Colombia and Ecuador",
    "Description": "--",
    "Type": "land",
    "latitude": "2.48",
    "longitude": "-75.76",
    "latlong": "2.48, 75.76",
    "continent": "empty",
    "country": "empty"
  },
  {
    "_id": "57ab8d611eff02897b163f09",
    "Scientific Name": "Atelopus ignescens",
    "date": "Unkn-01-01T00:00:00Zown",
    "Range": "Ecuador",
    "Description": "--",
    "Type": "land",
    "latitude": "-1.13",
    "longitude": "-77.16",
    "latlong": "-1.13,-77.16",
    "continent": "empty",
    "country": "empty"
  },
  {
    "_id": "57ab8d611eff02897b163f0a",
    "Scientific Name": "Atelopus longirostris",
    "date": "1989-01-01T00:00:00Z",
    "Range": "Ecuador",
    "Description": "--",
    "Type": "land",
    "latitude": "-1.13",
    "longitude": "-77.16",
    "latlong": "-1.13,-77.16",
    "continent": "empty",
    "country": "empty"
  },
  {
    "_id": "57ab8d611eff02897b163f0b",
    "Scientific Name": "Atelopus vogli",
    "date": "1933-01-01T00:00:00Z",
    "Range": "Venezuela",
    "Description": "--",
    "Type": "land",
    "latitude": "6.63",
    "longitude": "-65.21",
    "latlong": "6.63,-65.21",
    "continent": "South America",
    "country": "VE"
  },
  {
    "_id": "57ab8d611eff02897b163f0c",
    "Scientific Name": "Phrynomedusa fimbriata",
    "date": "1920-01-01T00:00:00Z",
    "Range": "Brazil",
    "Description": "--",
    "Type": "land",
    "latitude": "-12.54",
    "longitude": "-53.08",
    "latlong": "-12.5,-53.08",
    "continent": "South America",
    "country": "BR"
  },
  {
    "_id": "57ab8d611eff02897b163f0d",
    "Scientific Name": "Rhinoderma rufum",
    "date": "1980-01-01T00:00:00Z",
    "Range": "Chile",
    "Description": "--",
    "Type": "land",
    "latitude": "-47.74",
    "longitude": "-73.12",
    "latlong": "-47.7,-73.12",
    "continent": "South America",
    "country": "CL"
  },
  {
    "_id": "57ab8d611eff02897b163f0e",
    "Scientific Name": "Chelonoidis nigra nigra",
    "date": "1850-01-01T00:00:00Z",
    "Range": "Ecuador (Galapagos Islands)",
    "Description": "--",
    "Type": "land",
    "latitude": "-0.73",
    "longitude": "-91.06",
    "latlong": "-0.73,-91.06",
    "continent": "South America",
    "country": "EC"
  },
  {
    "_id": "57ab8d611eff02897b163f0f",
    "Scientific Name": "Chelonoidis nigra abingdonii",
    "date": "2012-01-01T00:00:00Z",
    "Range": "Ecuador (Galapagos Islands)",
    "Description": "--",
    "Type": "land",
    "latitude": "-0.73",
    "longitude": "-91.06",
    "latlong": "-0.73,-91.06",
    "continent": "South America",
    "country": "EC"
  },
  {
    "_id": "57ab8d7c1eff02897b163f10",
    "Scientific Name": "Sephanoides fernandensis leyboldi",
    "date": "1908-01-01T00:00:00Z",
    "Range": "Chile",
    "Description": "--",
    "Type": "air",
    "latitude": "-47.74",
    "longitude": "-73.12",
    "latlong": "-47.7,-73.12",
    "continent": "South America",
    "country": "CL"
  },
  {
    "_id": "57ab8d7c1eff02897b163f11",
    "Scientific Name": "Podiceps andinus",
    "date": "1970-01-01T00:00:00Z",
    "Range": "Colombia",
    "Description": "--",
    "Type": "air",
    "latitude": "2.47",
    "longitude": "-72.07",
    "latlong": "2.47, -72.07",
    "continent": "South America",
    "country": "CO"
  },
  {
    "_id": "57ab8d7c1eff02897b163f12",
    "Scientific Name": "Geospiza magnirostris magnirostris",
    "date": "1957-01-01T00:00:00Z",
    "Range": "Ecuador (Galapagos Islands)",
    "Description": "--",
    "Type": "air",
    "latitude": "-0.73",
    "longitude": "-91.06",
    "latlong": "-0.73,-91.06",
    "continent": "South America",
    "country": "EC"
  },
  {
    "_id": "57ab8d7c1eff02897b163f13",
    "Scientific Name": "Anas georgica niceforoi",
    "date": "1952-01-01T00:00:00Z",
    "Range": "Colombia",
    "Description": "--",
    "Type": "air",
    "latitude": "2.47",
    "longitude": "-72.07",
    "latlong": "2.47,-72.07",
    "continent": "South America",
    "country": "CO"
  },
  {
    "_id": "57ab8d7c1eff02897b163f14",
    "Scientific Name": "Pyrocephalus rubinus dubius",
    "date": "1980-01-01T00:00:00Z",
    "Range": "Ecuador (Galapagos Islands)",
    "Description": "--",
    "Type": "air",
    "latitude": "-0.73",
    "longitude": "-91.06",
    "latlong": "-0.73,-91.06",
    "continent": "South America",
    "country": "EC"
  },
  {
    "_id": "57ab8d7c1eff02897b163f15",
    "Scientific Name": "Aramides gutturalis",
    "date": "1843-01-01T00:00:00Z",
    "Range": "Peru",
    "Description": "--",
    "Type": "air",
    "latitude": "-10.21",
    "longitude": "-73.56",
    "latlong": "-10.2,-73.56",
    "continent": "South America",
    "country": "PE"
  },
  {
    "_id": "57ab8d7c1eff02897b163f16",
    "Scientific Name": "Heliangelus zusii",
    "date": "1971-01-01T00:00:00Z",
    "Range": "Colombia",
    "Description": "--",
    "Type": "air",
    "latitude": "2.47",
    "longitude": "-72.07",
    "latlong": "2.47,-72.07",
    "continent": "South America",
    "country": "CO"
  },
  {
    "_id": "57ab8d7c1eff02897b163f17",
    "Scientific Name": "Heliangelus zusii",
    "date": "1907-01-01T00:00:00Z",
    "Range": "Colombia",
    "Description": "--",
    "Type": "air",
    "latitude": "2.47",
    "longitude": "-72.07",
    "latlong": "2.47,7.07",
    "continent": "empty",
    "country": "empty"
  },
  {
    "_id": "57ab8d7c1eff02897b163f18",
    "Scientific Name": "Numenius borealis",
    "date": "1939-01-01T00:00:00Z",
    "Range": "Brazil and Argentina",
    "Description": "--",
    "Type": "air",
    "latitude": "-28.21",
    "longitude": "-56.33",
    "latlong": "-28.2,-56.33",
    "continent": "South America",
    "country": "AR"
  },
  {
    "_id": "57ab8d7c1eff02897b163f19",
    "Scientific Name": "Anodorhynchus glaucus",
    "date": "1960-01-01T00:00:00Z",
    "Range": "Argentina, Brazil, Paraguay and Uruguay",
    "Description": "--",
    "Type": "air",
    "latitude": "-28.21",
    "longitude": "-56.33",
    "latlong": "-28.2,-56.33",
    "continent": "South America",
    "country": "AR"
  },
  {
    "_id": "57ab8d7c1eff02897b163f1a",
    "Scientific Name": "Sporophila melanops",
    "date": "1823-01-01T00:00:00Z",
    "Range": "Brazil",
    "Description": "--",
    "Type": "air",
    "latitude": "-12.54",
    "longitude": "-53.08",
    "latlong": "-12.5,-53.08",
    "continent": "South America",
    "country": "BR"
  },
  {
    "_id": "57ab8d7c1eff02897b163f1b",
    "Scientific Name": "Discosura letitiae",
    "date": "1852-01-01T00:00:00Z",
    "Range": "Bolivia",
    "Description": "--",
    "Type": "air",
    "latitude": "-16.11",
    "longitude": "-64.77",
    "latlong": "-16.1,-64.77",
    "continent": "South America",
    "country": "BO"
  },
  {
    "_id": "57ab8d7c1eff02897b163f1c",
    "Scientific Name": "Grallaria chthonia",
    "date": "1956-01-01T00:00:00Z",
    "Range": "Venezuela",
    "Description": "--",
    "Type": "air",
    "latitude": "6.63",
    "longitude": "-65.21",
    "latlong": "6.63,-65.21",
    "continent": "South America",
    "country": "VE"
  },
  {
    "_id": "57ab8d8c1eff02897b163f1d",
    "Scientific Name": "Smilodon populator",
    "date": "10,0-01-01T00:00:00Z00",
    "Range": "Northern South Ameica",
    "Description": "--",
    "Type": "land",
    "latitude": "-3.23",
    "longitude": "-57.12",
    "latlong": "-3.23,-57.12",
    "continent": "South America",
    "country": "BR"
  },
  {
    "_id": "57ab8d8c1eff02897b163f1e",
    "Scientific Name": "Antifer crassus",
    "date": "1100-01-01T00:00:00Z0",
    "Range": "Argentina, Brazil and Chile",
    "Description": "--",
    "Type": "land",
    "latitude": "-47.74",
    "longitude": "-73.12",
    "latlong": "-47.7,-73.12",
    "continent": "South America",
    "country": "CL"
  },
  {
    "_id": "57ab8d8c1eff02897b163f1f",
    "Scientific Name": "Arctotherium sp.",
    "date": "1100-01-01T00:00:00Z0",
    "Range": "South America",
    "Description": "--",
    "Type": "land",
    "latitude": "-16.95",
    "longitude": "-57.74",
    "latlong": "-16.9,-57.74",
    "continent": "South America",
    "country": "BR"
  },
  {
    "_id": "57ab8d8c1eff02897b163f20",
    "Scientific Name": "Canis nehringi",
    "date": "8000-01-01T00:00:00Z",
    "Range": "South America",
    "Description": "--",
    "Type": "land",
    "latitude": "-16.95",
    "longitude": "-57.74",
    "latlong": "-16.9,-57.74",
    "continent": "South America",
    "country": "BR"
  },
  {
    "_id": "57ab8d8c1eff02897b163f21",
    "Scientific Name": "Cuvieronius sp.",
    "date": "4000-01-01T00:00:00Z",
    "Range": "South America",
    "Description": "--",
    "Type": "land",
    "latitude": "-16.95",
    "longitude": "-57.74",
    "latlong": "-16.9,-57.74",
    "continent": "South America",
    "country": "BR"
  },
  {
    "_id": "57ab8d8c1eff02897b163f22",
    "Scientific Name": "Canis dirus",
    "date": "1100-01-01T00:00:00Z0",
    "Range": "South America",
    "Description": "--",
    "Type": "land",
    "latitude": "-16.95",
    "longitude": "-57.74",
    "latlong": "-16.9,-57.74",
    "continent": "South America",
    "country": "BR"
  },
  {
    "_id": "57ab8d8c1eff02897b163f23",
    "Scientific Name": "Catonyx",
    "date": "6000-01-01T00:00:00Z",
    "Range": "South America",
    "Description": "--",
    "Type": "land",
    "latitude": "-16.95",
    "longitude": "-57.74",
    "latlong": "-16.9,-57.74",
    "continent": "South America",
    "country": "BR"
  },
  {
    "_id": "57ab8d8c1eff02897b163f24",
    "Scientific Name": "Doedicurus",
    "date": "1100-01-01T00:00:00Z0",
    "Range": "South America",
    "Description": "--",
    "Type": "land",
    "latitude": "-16.95",
    "longitude": "-57.74",
    "latlong": "-16.9,-57.74",
    "continent": "South America",
    "country": "BR"
  },
  {
    "_id": "57ab8d8c1eff02897b163f25",
    "Scientific Name": "Hippidion",
    "date": "1000-01-01T00:00:00Z0",
    "Range": "South America",
    "Description": "--",
    "Type": "land",
    "latitude": "-16.95",
    "longitude": "-57.74",
    "latlong": "-16.9,-57.74",
    "continent": "South America",
    "country": "BR"
  },
  {
    "_id": "57ab8d8c1eff02897b163f26",
    "Scientific Name": "Macrauchenia sp.",
    "date": "1000-01-01T00:00:00Z0",
    "Range": "South America",
    "Description": "--",
    "Type": "land",
    "latitude": "-16.95",
    "longitude": "-57.74",
    "latlong": "-16.9,-57.74",
    "continent": "South America",
    "country": "BR"
  },
  {
    "_id": "57ab8d8c1eff02897b163f27",
    "Scientific Name": "Neochoerus sp.",
    "date": "1000-01-01T00:00:00Z0",
    "Range": "South America",
    "Description": "--",
    "Type": "land",
    "latitude": "-16.95",
    "longitude": "-57.74",
    "latlong": "-16.9,-57.74",
    "continent": "South America",
    "country": "BR"
  },
  {
    "_id": "57ab8d8c1eff02897b163f28",
    "Scientific Name": "Stegomastodon sp.",
    "date": "1000-01-01T00:00:00Z0",
    "Range": "South America",
    "Description": "--",
    "Type": "land",
    "latitude": "-16.95",
    "longitude": "-57.74",
    "latlong": "-16.9,-57.74",
    "continent": "South America",
    "country": "BR"
  },
  {
    "_id": "57ab8d8c1eff02897b163f29",
    "Scientific Name": "Palaeolama mirifica",
    "date": "1000-01-01T00:00:00Z0",
    "Range": "South America",
    "Description": "--",
    "Type": "land",
    "latitude": "-16.95",
    "longitude": "-57.74",
    "latlong": "-16.9,-57.74",
    "continent": "South America",
    "country": "BR"
  },
  {
    "_id": "57ab8d8c1eff02897b163f2a",
    "Scientific Name": "Theriodictis sp.",
    "date": "1100-01-01T00:00:00Z0",
    "Range": "Bolivia, Brazil and Paraguay",
    "Description": "--",
    "Type": "land",
    "latitude": "-16.79",
    "longitude": "-62.40",
    "latlong": "-16.7,-62.40",
    "continent": "South America",
    "country": "BO"
  },
  {
    "_id": "57ab8d8c1eff02897b163f2b",
    "Scientific Name": "Toxodon sp.",
    "date": "1650-01-01T00:00:00Z0",
    "Range": "South America",
    "Description": "--",
    "Type": "land",
    "latitude": "-16.95",
    "longitude": "-57.74",
    "latlong": "-16.9,-57.74",
    "continent": "South America",
    "country": "BR"
  },
  {
    "_id": "57ab8d8c1eff02897b163f2c",
    "Scientific Name": "Xenorhinotherium bahiensis",
    "date": "1000-01-01T00:00:00Z0",
    "Range": "Brazil and Venezuela",
    "Description": "--",
    "Type": "land",
    "latitude": "6.63",
    "longitude": "-65.21",
    "latlong": "6.63, -65.21",
    "continent": "South America",
    "country": "VE"
  },
  {
    "_id": "57ab8d8c1eff02897b163f2d",
    "Scientific Name": "Juscelinomys candango",
    "date": "1960-01-01T00:00:00Z",
    "Range": "Brazil",
    "Description": "--",
    "Type": "land",
    "latitude": "-12.54",
    "longitude": "-53.08",
    "latlong": "-12.5,-53.08",
    "continent": "South America",
    "country": "BR"
  },
  {
    "_id": "57ab8d8c1eff02897b163f2f",
    "cientific name": "Nesoryzomys darwini",
    "date": "1929-01-01T00:00:00Z",
    "Range": "Ecuador (Galapagos Islands)",
    "Description": "--",
    "Type": "land",
    "latitude": "-0.73",
    "longitude": "-91.06",
    "latlong": "-0.73,-91.06",
    "continent": "South America",
    "country": "EC"
  },
  {
    "_id": "57ab8d8c1eff02897b163f31",
    "Scientific Name": "Megaoryzomys curioi",
    "date": "Unkn-01-01T00:00:00Zown",
    "Range": "Ecuador (Galapagos Islands)",
    "Description": "--",
    "Type": "land",
    "latitude": "-0.73",
    "longitude": "-91.06",
    "latlong": "-0.73,-91.06",
    "continent": "South America",
    "country": "EC"
  },
  {
    "_id": "57ab8d8c1eff02897b163f32",
    "Scientific Name": "Nesoryzomys indefessus",
    "date": "1930-01-01T00:00:00Z",
    "Range": "Ecuador (Galapagos Islands)",
    "Description": "--",
    "Type": "land",
    "latitude": "-0.73",
    "longitude": "-91.06",
    "latlong": "-0.73,-91.06",
    "continent": "South America",
    "country": "EC"
  },
  {
    "_id": "57ab8d8c1eff02897b163f33",
    "Scientific Name": "Desmodus draculae",
    "date": "Unkn-01-01T00:00:00Zown",
    "Range": "Bolivia, Brazil & Venezuela",
    "Description": "--",
    "Type": "land",
    "latitude": "6.63",
    "longitude": "-65.21",
    "latlong": "6.63, 6.21",
    "continent": "Africa",
    "country": "NG"
  },
  {
    "_id": "57ab8d8c1eff02897b163f34",
    "Scientific Name": "Lagostomus crassus",
    "date": "1910-01-01T00:00:00Z",
    "Range": "Peru",
    "Description": "--",
    "Type": "land",
    "latitude": "-10.21",
    "longitude": "-73.56",
    "latlong": "-10.2,-73.56",
    "continent": "South America",
    "country": "PE"
  },
  {
    "_id": "57ab8d8c1eff02897b163f36",
    "Scientific Name": "Noronhomys vespuccii",
    "date": "1503-01-01T00:00:00Z",
    "Range": "Brazil",
    "Description": "--",
    "Type": "land",
    "latitude": "-12.54",
    "longitude": "-53.08",
    "latlong": "-12.5,-53.08",
    "continent": "South America",
    "country": "BR"
  },
  {
    "_id": "57ab8d8c1eff02897b163f38",
    "Scientific Name": "Octodon pacificus",
    "date": "1994-01-01T00:00:00Z",
    "Range": "Mocha Island, Chile",
    "Description": "--",
    "Type": "land",
    "latitude": "-47.74",
    "longitude": "-73.12",
    "latlong": "-47.7,-73.12",
    "continent": "South America",
    "country": "CL"
  },
  {
    "_id": "57ab8d8c1eff02897b163f39",
    "Scientific Name": "Melanomys zunigae",
    "date": "1942-01-01T00:00:00Z",
    "Range": "Peru",
    "Description": "--",
    "Type": "land",
    "latitude": "-10.21",
    "longitude": "-73.56",
    "latlong": "-10.2,-73.56",
    "continent": "South America",
    "country": "PE"
  },
  {
    "_id": "57ab8f0d1eff02897b163f3a",
    "Scientific name": "Struthio camelus syriacus",
    "date": "1966-01-01T00:00:00Z",
    "Range": "Middle East",
    "Description": "--",
    "Type": "air",
    "latitude": "29.16",
    "longitude": "42.02",
    "latlong": "29.16,42.02",
    "continent": "Asia",
    "country": "SA"
  },
  {
    "_id": "57ab8f0d1eff02897b163f3b",
    "Scientific name": "Struthio asiaticus",
    "date": "1000-01-01T00:00:00Z0",
    "Range": "Middle East to Central Asia",
    "Description": "--",
    "Type": "air",
    "latitude": "29.16",
    "longitude": "42.02",
    "latlong": "29.16,42.02",
    "continent": "Asia",
    "country": "SA"
  },
  {
    "_id": "57ab8f0d1eff02897b163f3c",
    "Scientific name": "Branta hutchinsii asiatica",
    "date": "1929-01-01T00:00:00Z",
    "Range": "Russia (Komandorski and Kuril Islands)",
    "Description": "--",
    "Type": "air",
    "latitude": "62.73",
    "longitude": "98.44",
    "latlong": "62.73,98.44",
    "continent": "Europe",
    "country": "RU"
  },
  {
    "_id": "57ab8f0d1eff02897b163f3d",
    "Scientific name": "Carpodacus ferreorostris",
    "date": "1828-01-01T00:00:00Z",
    "Range": "Japan (Bonin Islands)",
    "Description": "--",
    "Type": "air",
    "latitude": "27.03",
    "longitude": "142.20",
    "latlong": "27.03,142.20",
    "continent": "empty",
    "country": "empty"
  },
  {
    "_id": "57ab8f0d1eff02897b163f3e",
    "Scientific name": "Nycticorax caledonicus crassirostris",
    "date": "1889-01-01T00:00:00Z",
    "Range": "Japan (Bonin Islands)",
    "Description": "--",
    "Type": "air",
    "latitude": "27.03",
    "longitude": "142.20",
    "latlong": "27.03,142.20",
    "continent": "empty",
    "country": "empty"
  },
  {
    "_id": "57ab8f0d1eff02897b163f3f",
    "Scientific name": "Zoothera terrestris",
    "date": "1827-01-01T00:00:00Z",
    "Range": "Japan (Bonin Islands)",
    "Description": "--",
    "Type": "air",
    "latitude": "27.03",
    "longitude": "142.20",
    "latlong": "27.03,142.20",
    "continent": "empty",
    "country": "empty"
  },
  {
    "_id": "57ab8f0d1eff02897b163f40",
    "Scientific name": "Columba versicolor",
    "date": "1889-01-01T00:00:00Z",
    "Range": "Japan (Bonin Islands)",
    "Description": "--",
    "Type": "air",
    "latitude": "27.03",
    "longitude": "142.20",
    "latlong": "27.03,142.20",
    "continent": "empty",
    "country": "empty"
  },
  {
    "_id": "57ab8f0d1eff02897b163f41",
    "Scientific name": "Loriculus philippensis chrysonotus",
    "date": "Unkn-01-01T00:00:00Zown",
    "Range": "Philippines (Cebu)",
    "Description": "--",
    "Type": "air",
    "latitude": "10.40",
    "longitude": "123.80",
    "latlong": "10.40,123.80",
    "continent": "Asia",
    "country": "PH"
  },
  {
    "_id": "57ab8f0d1eff02897b163f42",
    "Scientific name": "Cinclus cinclus olympicus",
    "date": "1950-01-01T00:00:00Z",
    "Range": "Cyprus",
    "Description": "--",
    "Type": "air",
    "latitude": "34.93",
    "longitude": "33.14",
    "latlong": "34.93,33.14",
    "continent": "Asia",
    "country": "CY"
  },
  {
    "_id": "57ab8f0d1eff02897b163f43",
    "Scientific name": "Apalopteron familiare familiare",
    "date": "1930-01-01T00:00:00Z",
    "Range": "Japan (Bonin Islands)",
    "Description": "--",
    "Type": "air",
    "latitude": "27.03",
    "longitude": "142.20",
    "latlong": "27.03,142.20",
    "continent": "empty",
    "country": "empty"
  },
  {
    "_id": "57ab8f0d1eff02897b163f44",
    "Scientific name": "Todiramphus miyakoensis",
    "date": "1887-01-01T00:00:00Z",
    "Range": "Japan (Ryukyu Islands)",
    "Description": "--",
    "Type": "air",
    "latitude": "26.49",
    "longitude": "127.99",
    "latlong": "26.49,127.99",
    "continent": "Asia",
    "country": "JP"
  },
  {
    "_id": "57ab8f0d1eff02897b163f45",
    "Scientific name": "Columba jouyi",
    "date": "1936-01-01T00:00:00Z",
    "Range": "Japan (Ryukyu Islands)",
    "Description": "--",
    "Type": "air",
    "latitude": "26.49",
    "longitude": "127.99",
    "latlong": "26.49,127.99",
    "continent": "Asia",
    "country": "JP"
  },
  {
    "_id": "57ab8f0d1eff02897b163f46",
    "Scientific name": "Phalacrocorax perspicillatus",
    "date": "1850-01-01T00:00:00Z",
    "Range": "Russia",
    "Description": "--",
    "Type": "air",
    "latitude": "62.73",
    "longitude": "98.44",
    "latlong": "62.73,98.44",
    "continent": "Europe",
    "country": "RU"
  },
  {
    "_id": "57ab8f211eff02897b163f47",
    "Scientific name": "Bos primigenius",
    "date": "Indi-01-01T00:00:00Za (9000), Eurasia (1627)",
    "Range": "Northern Asia and Indian Sontinent",
    "Description": "--",
    "Type": "land",
    "latitude": "49.10",
    "longitude": "108.78",
    "latlong": "49.10,108.78",
    "continent": "Asia",
    "country": "MN"
  },
  {
    "_id": "57ab8f211eff02897b163f48",
    "Scientific name": "Panthera tigris balica",
    "date": "1937-01-01T00:00:00Z",
    "Range": "Indonesia (Bali)",
    "Description": "--",
    "Type": "land",
    "latitude": "-8.34",
    "longitude": "115.08",
    "latlong": "-8.34,115.08",
    "continent": "Asia",
    "country": "ID"
  },
  {
    "_id": "57ab8f211eff02897b163f49",
    "Scientific name": "Coryphomys buehleri",
    "date": "1500-01-01T00:00:00Z",
    "Range": "Indonesia (Timor)",
    "Description": "--",
    "Type": "land",
    "latitude": "-9.88",
    "longitude": "124.33",
    "latlong": "-9.88,124.33",
    "continent": "Asia",
    "country": "ID"
  },
  {
    "_id": "57ab8f211eff02897b163f4a",
    "Scientific name": "Panthera tigris virgata",
    "date": "1970-01-01T00:00:00Z",
    "Range": "Turkey to China",
    "Description": "--",
    "Type": "land",
    "latitude": "36.65",
    "longitude": "64.03",
    "latlong": "36.65,64.03",
    "continent": "Asia",
    "country": "TM"
  },
  {
    "_id": "57ab8f211eff02897b163f4b",
    "Scientific name": "Alces alces caucasicus",
    "date": "1850-01-01T00:00:00Z",
    "Range": "Caucasus Mountains, Iran and Turkey",
    "Description": "--",
    "Type": "land",
    "latitude": "38.51",
    "longitude": "44.35",
    "latlong": "38.51,44.35",
    "continent": "Asia",
    "country": "IR"
  },
  {
    "_id": "57ab8f211eff02897b163f4c",
    "Scientific name": "Bison bonasus caucasicus",
    "date": "1925-01-01T00:00:00Z",
    "Range": "Caucasus Mountains",
    "Description": "--",
    "Type": "land",
    "latitude": "38.51",
    "longitude": "44.35",
    "latlong": "38.51,44.35",
    "continent": "Asia",
    "country": "IR"
  },
  {
    "_id": "57ab8f211eff02897b163f4d",
    "Scientific name": "Sus cebifrons cebifrons",
    "date": "1951-01-01T00:00:00Z",
    "Range": "Yemen",
    "Description": "--",
    "Type": "land",
    "latitude": "15.29",
    "longitude": "46.73",
    "latlong": "15.29,46.73",
    "continent": "empty",
    "country": "empty"
  },
  {
    "_id": "57ab8f211eff02897b163f4e",
    "Scientific name": "Spelaeomys florensis",
    "date": "1500-01-01T00:00:00Zs",
    "Range": "Indonesia (Flores)",
    "Description": "--",
    "Type": "land",
    "latitude": "-8.77",
    "longitude": "121.06",
    "latlong": "-8.77,121.06",
    "continent": "Asia",
    "country": "ID"
  },
  {
    "_id": "57ab8f211eff02897b163f4f",
    "Scientific name": "Paulamys naso",
    "date": "1500-01-01T00:00:00Zs",
    "Range": "Indonesia (Flores)",
    "Description": "--",
    "Type": "land",
    "latitude": "-8.77",
    "longitude": "121.06",
    "latlong": "-8.77,121.06",
    "continent": "Asia",
    "country": "ID"
  },
  {
    "_id": "57ab8f211eff02897b163f50",
    "Scientific name": "Neofelis nebulosa brachyura",
    "date": "1990-01-01T00:00:00Zs",
    "Range": "Taiwan",
    "Description": "--",
    "Type": "land",
    "latitude": "23.69",
    "longitude": "121.01",
    "latlong": "23.69,121.01",
    "continent": "Asia",
    "country": "TW"
  },
  {
    "_id": "57ab8f211eff02897b163f51",
    "Scientific name": "Canis lupus hattai",
    "date": "1889-01-01T00:00:00Z",
    "Range": "Japan (Hokkaidō)",
    "Description": "--",
    "Type": "land",
    "latitude": "43.25",
    "longitude": "142.66",
    "latlong": "43.25,142.66",
    "continent": "Asia",
    "country": "JP"
  },
  {
    "_id": "57ab8f211eff02897b163f52",
    "Scientific name": "Canis lupus hodophilax",
    "date": "1905-01-01T00:00:00Z",
    "Range": "Japan (Honshū)",
    "Description": "--",
    "Type": "land",
    "latitude": "35.97",
    "longitude": "138.23",
    "latlong": "35.97,138.23",
    "continent": "Asia",
    "country": "JP"
  },
  {
    "_id": "57ab8f211eff02897b163f53",
    "Scientific name": "Crateromys paulus",
    "date": "Apri-01-01T00:00:00Zl 4, 1953",
    "Range": "Philippines",
    "Description": "--",
    "Type": "land",
    "latitude": "11.46",
    "longitude": "123.32",
    "latlong": "11.46,123.32",
    "continent": "empty",
    "country": "empty"
  },
  {
    "_id": "57ab8f211eff02897b163f54",
    "Scientific name": "Rhinoceros sondaicus inermis",
    "date": "Befo-01-01T00:00:00Zre 1925",
    "Range": "Bangladesh, Burma (Myanmar), and India",
    "Description": "--",
    "Type": "land",
    "latitude": "23.21",
    "longitude": "92.89",
    "latlong": "23.21,92.89",
    "continent": "Asia",
    "country": "IN"
  },
  {
    "_id": "57ab8f211eff02897b163f55",
    "Scientific name": "Lutra lutra whiteleyi",
    "date": "1979-01-01T00:00:00Z",
    "Range": "Japan",
    "Description": "--",
    "Type": "land",
    "latitude": "35.82",
    "longitude": "138.76",
    "latlong": "35.82,138.76",
    "continent": "Asia",
    "country": "JP"
  },
  {
    "_id": "57ab8f211eff02897b163f56",
    "Scientific name": "Zalophus japonicus",
    "date": "1974-01-01T00:00:00Z",
    "Range": "Sea of Japan",
    "Description": "--",
    "Type": "land",
    "latitude": "35.82",
    "longitude": "138.76",
    "latlong": "35.82,138.76",
    "continent": "Asia",
    "country": "JP"
  },
  {
    "_id": "57ab8f211eff02897b163f57",
    "Scientific name": "Panthera tigris sondaica",
    "date": "1970-01-01T00:00:00Zs",
    "Range": "Indonesia (Java)",
    "Description": "--",
    "Type": "land",
    "latitude": "-7.24",
    "longitude": "110.57",
    "latlong": "-7.24,110.57",
    "continent": "Asia",
    "country": "ID"
  },
  {
    "_id": "57ab8f211eff02897b163f58",
    "Scientific name": "Dicerorhinus sumatrensis lasiotis",
    "date": "Unkn-01-01T00:00:00Zown",
    "Range": "Bangladesh, Burma (Myanmar), and India",
    "Description": "--",
    "Type": "land",
    "latitude": "23.21",
    "longitude": "92.89",
    "latlong": "23.21,92.89",
    "continent": "Asia",
    "country": "IN"
  },
  {
    "_id": "57ab8f211eff02897b163f59",
    "Scientific name": "Gazella bilkis",
    "date": "1951-01-01T00:00:00Z",
    "Range": "Yemen",
    "Description": "--",
    "Type": "land",
    "latitude": "15.29",
    "longitude": "46.73",
    "latlong": "15.29,46.73",
    "continent": "empty",
    "country": "empty"
  },
  {
    "_id": "57ab8f211eff02897b163f5a",
    "Scientific name": "Gazella saudiya",
    "date": "Unkn-01-01T00:00:00Zown",
    "Range": "Arabian Peninsula",
    "Description": "--",
    "Type": "land",
    "latitude": "18.88",
    "longitude": "47.51",
    "latlong": "18.88,47.51",
    "continent": "Asia",
    "country": "SA"
  },
  {
    "_id": "57ab8f211eff02897b163f5b",
    "Scientific name": "Rucervus schomburgki",
    "date": "1938-01-01T00:00:00Z",
    "Range": "Thailand",
    "Description": "--",
    "Type": "land",
    "latitude": "16.62",
    "longitude": "100.34",
    "latlong": "16.62,100.34",
    "continent": "Asia",
    "country": "TH"
  },
  {
    "_id": "57ab8f211eff02897b163f5c",
    "Scientific name": "Hydrodamalis gigas",
    "date": "1768-01-01T00:00:00Z",
    "Range": "Russia (Commander Islands)",
    "Description": "--",
    "Type": "land",
    "latitude": "62.73",
    "longitude": "98.44",
    "latlong": "62.73,98.44",
    "continent": "Europe",
    "country": "RU"
  },
  {
    "_id": "57ab8f211eff02897b163f5d",
    "Scientific name": "Pipistrellus sturdeei",
    "date": "Unkn-01-01T00:00:00Zown",
    "Range": "Japan (Bonin Islands)",
    "Description": "--",
    "Type": "land",
    "latitude": "27.03",
    "longitude": "142.20",
    "latlong": "27.03,142.20",
    "continent": "empty",
    "country": "empty"
  },
  {
    "_id": "57ab8f211eff02897b163f5e",
    "Scientific name": "Neofelis nebulosa brachyura",
    "date": "1500-01-01T00:00:00Z",
    "Range": "Indonesia (Flores)",
    "Description": "--",
    "Type": "land",
    "latitude": "-8.77",
    "longitude": "121.06",
    "latlong": "-8.77,121.06",
    "continent": "Asia",
    "country": "ID"
  },
  {
    "_id": "57ab8f211eff02897b163f5f",
    "Scientific name": "Rhinoceros sondaicus annamiticus",
    "date": "2010-01-01T00:00:00Z",
    "Range": "Vietnam to Malaysia",
    "Description": "--",
    "Type": "land",
    "latitude": "4.57",
    "longitude": "103.15",
    "latlong": "4.57,103.15",
    "continent": "Asia",
    "country": "MY"
  },
  {
    "_id": "57ab8f3f1eff02897b163f60",
    "Scientific name": "Bos primigenius",
    "date": "Indi-01-01T00:00:00Za (9000), Eurasia (1627)",
    "Range": "Northern Asia and Indian Sontinent",
    "Description": "--",
    "Type": "land",
    "latitude": "49.10",
    "longitude": "108.78",
    "latlong": "49.10,108.78",
    "continent": "Asia",
    "country": "MN"
  },
  {
    "_id": "57ab8f3f1eff02897b163f61",
    "Scientific name": "Panthera tigris balica",
    "date": "1937-01-01T00:00:00Z",
    "Range": "Indonesia (Bali)",
    "Description": "--",
    "Type": "land",
    "latitude": "-8.34",
    "longitude": "115.08",
    "latlong": "-8.34,115.08",
    "continent": "Asia",
    "country": "ID"
  },
  {
    "_id": "57ab8f3f1eff02897b163f62",
    "Scientific name": "Coryphomys buehleri",
    "date": "1500-01-01T00:00:00Z",
    "Range": "Indonesia (Timor)",
    "Description": "--",
    "Type": "land",
    "latitude": "-9.88",
    "longitude": "124.33",
    "latlong": "-9.88,124.33",
    "continent": "Asia",
    "country": "ID"
  },
  {
    "_id": "57ab8f3f1eff02897b163f63",
    "Scientific name": "Panthera tigris virgata",
    "date": "1970-01-01T00:00:00Z",
    "Range": "Turkey to China",
    "Description": "--",
    "Type": "land",
    "latitude": "38.7",
    "longitude": "66.46",
    "latlong": "38.7,66.46",
    "continent": "Asia",
    "country": "UZ"
  },
  {
    "_id": "57ab8f3f1eff02897b163f64",
    "Scientific name": "Alces alces caucasicus",
    "date": "1850-01-01T00:00:00Z",
    "Range": "Caucasus Mountains, Iran and Turkey",
    "Description": "--",
    "Type": "land",
    "latitude": "42.56",
    "longitude": "44.03",
    "latlong": "42.56,44.03",
    "continent": "empty",
    "country": "empty"
  },
  {
    "_id": "57ab8f3f1eff02897b163f65",
    "Scientific name": "Bison bonasus caucasicus",
    "date": "1925-01-01T00:00:00Z",
    "Range": "Caucasus Mountains",
    "Description": "--",
    "Type": "land",
    "latitude": "42.56",
    "longitude": "44.03",
    "latlong": "42.56,44.03",
    "continent": "empty",
    "country": "empty"
  },
  {
    "_id": "57ab8f3f1eff02897b163f66",
    "Scientific name": "Sus cebifrons cebifrons",
    "date": "1951-01-01T00:00:00Z",
    "Ran": "Queen of Sheba's gazelle",
    "Range": "Yemen",
    "Description": "--",
    "Type": "land",
    "latitude": "15.29",
    "longitude": "46.73",
    "latlong": "15.29,46.73",
    "continent": "empty",
    "country": "empty"
  },
  {
    "_id": "57ab8f3f1eff02897b163f67",
    "Scientific name": "Gazella saudiya",
    "date": "Unkn-01-01T00:00:00Zown",
    "Range": "Arabian Peninsula",
    "Description": "--",
    "Type": "land",
    "latitude": "18.88",
    "longitude": "47.51",
    "latlong": "18.88,47.51",
    "continent": "Asia",
    "country": "SA"
  },
  {
    "_id": "57ab8f3f1eff02897b163f68",
    "Scientific name": "Rucervus schomburgki",
    "date": "1938-01-01T00:00:00Z",
    "Range": "Thailand",
    "Description": "--",
    "Type": "land",
    "latitude": "16.62",
    "longitude": "100.34",
    "latlong": "16.62,100.34",
    "continent": "Asia",
    "country": "TH"
  },
  {
    "_id": "57ab8f3f1eff02897b163f69",
    "Scientific name": "Hydrodamalis gigas",
    "date": "1768-01-01T00:00:00Z",
    "Range": "Russia (Commander Islands)",
    "Description": "--",
    "Type": "land",
    "latitude": "62.73",
    "longitude": "98.44",
    "latlong": "62.73,98.44",
    "continent": "Europe",
    "country": "RU"
  },
  {
    "_id": "57ab8f3f1eff02897b163f6a",
    "Scientific name": "Pipistrellus sturdeei",
    "date": "Unkn-01-01T00:00:00Zown",
    "Range": "Japan (Bonin Islands)",
    "Description": "--",
    "Type": "land",
    "latitude": "27.03",
    "longitude": "142.20",
    "latlong": "27.03,142.20",
    "continent": "empty",
    "country": "empty"
  },
  {
    "_id": "57ab8f3f1eff02897b163f6b",
    "Scientific name": "Neofelis nebulosa brachyura",
    "date": "1500-01-01T00:00:00Z",
    "Range": "Indonesia (Flores)",
    "Description": "--",
    "Type": "land",
    "latitude": "-8.77",
    "longitude": "121.06",
    "latlong": "-8.77,121.06",
    "continent": "Asia",
    "country": "ID"
  },
  {
    "_id": "57ab8f3f1eff02897b163f6c",
    "Scientific name": "Rhinoceros sondaicus annamiticus",
    "date": "2010-01-01T00:00:00Z",
    "Range": "Vietnam to Malaysia",
    "Description": "--",
    "Type": "land",
    "latitude": "4.57",
    "longitude": "103.15",
    "latlong": "4.57,103.15",
    "continent": "Asia",
    "country": "MY"
  },
  {
    "_id": "57ab8f681eff02897b163f73",
    "Scientific name": "Pinguinus impennis",
    "date": "1854-01-01T00:00:00Z",
    "Range": "Iceland and Northern European Coast",
    "Type": "air",
    "latitude": "64.87",
    "longitude": "-18.81",
    "latlong": "64.87,-18.81",
    "continent": "Europe",
    "country": "IS"
  },
  {
    "_id": "57ab8f681eff02897b163f74",
    "Scientific name": "Corvus corax varius",
    "date": "1950-01-01T00:00:00Z",
    "Range": "Denmark (Faroe Islands)",
    "Type": "air",
    "latitude": "62.20",
    "longitude": "-7.08",
    "latlong": "62.20,-7.08",
    "continent": "Europe",
    "country": "FO"
  },
  {
    "_id": "57b7c81fa63e484229d311b0",
    "Common name": "Tasman starling",
    "Scientific name": "Aplonis fusca",
    "date": "1923-01-01T00:00:00Z",
    "Range": "Norfolk Island and Lord Howe Island, New South Wales",
    "Description": "Last recorded 1923. Competition from introduced European starling, song \nthrush and common blackbird, clearance for agriculture. Predation from \nintroduced black rats.",
    "latitude": "-29.04",
    "longitude": "167.95",
    "latlong": "-29.04,167.95",
    "type": "air"
  },
  {
    "_id": "57b7c81fa63e484229d311b1",
    "Common name": "White-throated pigeon",
    "Scientific name": "Columba vitiensis godmanae",
    "date": "1853-01-01T00:00:00Z",
    "Range": "Lord Howe Island",
    "Description": "Last recorded 1853. Believed due to hunting.",
    "latitude": "-31.55",
    "longitude": "159.07",
    "latlong": "-31.55,159.07",
    "type": "air"
  },
  {
    "_id": "57b7c81fa63e484229d311b2",
    "Common name": "Red-crowned parakeet",
    "Scientific name": "Cyanoramphus novaezelandiae subflavescens",
    "date": "1869-01-01T00:00:00Z",
    "Range": "Lord Howe Island",
    "Description": "Last recorded 1869. Due to persecution, because of predation on gardens and \ncrops.",
    "latitude": "-31.55",
    "longitude": "159.07",
    "latlong": "-31.55,159.07",
    "type": "air"
  },
  {
    "_id": "57b7c81fa63e484229d311b3",
    "Common name": "Kangaroo Island emu",
    "Scientific name": "Dromaius baudinianus",
    "date": "1805-01-01T00:00:00Z",
    "Range": "Kangaroo Island",
    "Description": "Extinction has been attributed to hunting and habitat clearance \nthrough burning. A captive bird died in 1822",
    "latitude": "-35.03",
    "longitude": "137.55",
    "latlong": "-35.03, 137.55",
    "type": "air"
  },
  {
    "_id": "57b7c81fa63e484229d311b4",
    "Common name": "Tasmanian emu",
    "Scientific name": "Dromaius novaehollandiae diemenensis",
    "date": "1850-01-01T00:00:00Z",
    "Range": "Tasmania",
    "Description": "--",
    "latitude": "-42.03",
    "longitude": "146.55",
    "latlong": "-42.03, 146.55",
    "type": "air"
  },
  {
    "_id": "57b7c81fa63e484229d311b5",
    "Common name": "Roper River scrub-robin",
    "Scientific name": "Drymodes superciliaris colcloughi",
    "date": "1910-01-01T00:00:00Z",
    "Range": "Northern Territory",
    "Description": "--",
    "latitude": "-19.03",
    "longitude": "132.55",
    "latlong": "-19.03, 146.55",
    "type": "air"
  },
  {
    "_id": "57b7c81fa63e484229d311b6",
    "Common name": "Norfolk ground dove",
    "Scientific name": "Gallicolumba norfolciensis",
    "date": "1850-01-01T00:00:00Z",
    "Range": "Norfolk Island",
    "Description": "--",
    "latitude": "-29.04",
    "longitude": "167.95",
    "latlong": "-29.04, 167.95",
    "type": "air"
  },
  {
    "_id": "57b7c81fa63e484229d311b7",
    "Common name": "Lord Howe fantail",
    "Scientific name": "Rhipidura cervina",
    "date": "1924-01-01T00:00:00Z",
    "Range": "Lord Howe Island",
    "Description": "Believed to be a result of the introduction of \nblack rats following the grounding of SS *Makamboin June 1918.",
    "latitude": "-31.55",
    "longitude": "159.07",
    "latlong": "-31.55,  159.07",
    "type": "air"
  },
  {
    "_id": "57b7c81fa63e484229d311b8",
    "Common name": "Lord Howe Island thrush",
    "Scientific name": "Turdus poliocephalus vinitinctus",
    "date": "1924-01-01T00:00:00Z",
    "Range": "Lord Howe Island",
    "Description": "Believed to be a result of the introduction of \nblack rats following the grounding of SS *Makamboin June 1918.",
    "latitude": "-31.55",
    "longitude": "159.07",
    "latlong": "-31.55,  159.07",
    "type": "air"
  },
  {
    "_id": "57b7c81fa63e484229d311b9",
    "Common name": "Robust white-eye",
    "Scientific name": "Zosterops strenuus",
    "date": "1923-01-01T00:00:00Z",
    "Range": "Lord Howe Island",
    "Description": "Believed to be a result of the introduction of \nblack rats following the grounding of SS *Makamboin June 1918.",
    "latitude": "-31.55",
    "longitude": "159.07",
    "latlong": "-31.55, 159.07",
    "type": "air"
  },
  {
    "_id": "57b7c81fa63e484229d311ba",
    "Common name": "Dwarf emu",
    "Scientific name": "Dromaius ater",
    "date": "1822-01-01T00:00:00Z",
    "Range": "Tasmania",
    "Description": "1822. Extinction through hunting and, apparently, fires started by visiting \nsailors",
    "latitude": "-42.03",
    "longitude": "146.55",
    "latlong": "-42.03,146.55",
    "type": "air"
  },
  {
    "_id": "57b7c81fa63e484229d311bb",
    "Common name": "Lord Howe warbler",
    "Scientific name": "Gerygone insularis",
    "date": "1928-01-01T00:00:00Z",
    "Range": "Lord Howe Island",
    "Description": "Not recorded since 1928. Believed to be a result of the introduction of \nblack rats following the grounding of SS *Makamboin June 1918.",
    "latitude": "-31.55",
    "longitude": "159.07",
    "latlong": "-31.55,159.07",
    "type": "air"
  },
  {
    "_id": "57b7c81fa63e484229d311bc",
    "Common name": "Norfolk Island boobook",
    "Scientific name": "Ninox novaeseelandiae undulata",
    "date": "1996-01-01T00:00:00Z",
    "Range": "Norfolk Island",
    "Description": "--",
    "latitude": "-29.04",
    "longitude": "167.95",
    "latlong": "-29.04,167.95",
    "type": "air"
  },
  {
    "_id": "57b7c81fa63e484229d311bd",
    "Common name": "Paradise parrot",
    "Scientific name": "Psephotus pulcherrimus",
    "date": "1927-01-01T00:00:00Z",
    "Range": "New South Wales, Queensland",
    "Description": "Date uncertain but around 1927; more recent sightings are sometimes claimed \nbut have never been confirmed. Cause uncertain, most hypotheses centre on \nstarvation from lack of grass seed after drought, overgrazing, more \nfrequent fires, and introduction of prickly pear.",
    "latitude": "-32.04",
    "longitude": "146.95",
    "latlong": "-32.04,146.95",
    "type": "air"
  },
  {
    "_id": "57b7c81fa63e484229d311be",
    "Common name": "Lewin's water rail",
    "Scientific name": "Rallus pectoralis clelandi",
    "date": "1932-01-01T00:00:00Z",
    "Range": "Western Australia",
    "Description": "--",
    "latitude": "-25.55",
    "longitude": "120.07",
    "latlong": "-25.55, 120.07",
    "type": "air"
  }
]
