[
  {
    "_id": "57ab8c5b1eff02897b163ed1",
    "Common name": "Alaotra grebe",
    "Scientific name": "Tachybaptus rufolavatus",
    "date": "1985-01-01T00:00:00Z",
    "Range": "Madagascar",
    "Image" :  "--",
    "Description": "--",
    "Type": "air",
    "latitude" :  "-18.766947",
    "longitude" : "46.869107",
    "latlong" :  "-18.76, 46.869107"
  },
  {
    "_id": "57ab8c5b1eff02897b163ed2",
    "Common name": "Aldabra brush-warbler",
    "Scientific name": "Nesillas aldabrana",
    "date": "1983-01-01T00:00:00Z",
    "Range": "Seychelles",
    "Image" :  "--",
    "Description": "--",
    "Type": "air",
    "latitude" : "-4.65",
    "longitude" : "55.47",
    "latlong" : "-4.65,55.47"
  },
  {
    "_id": "57ab8c5b1eff02897b163ed3",
    "Common name": "Ascension flightless crake",
    "Scientific name": "Mundia elpenor",
    "date": "1656-01-01T00:00:00Z",
    "Range": "United Kingdom (Ascension)",
    "Image" :  "--",
    "Description": "--",
    "Type": "air",
    "latitude" : "-15.98",
    "longitude" : "-5.701",
    "latlong" : "-15.9,-5.701"
  },
  {
    "_id": "57ab8c5b1eff02897b163ed4",
    "Common name": "Ascension night heron",
    "Scientific name": "Nycticorax olsoni",
    "date": "1600-01-01T00:00:00Z",
    "Range": "United Kingdom (Ascension)",
    "Image" :  "--",
    "Description": "--",
    "Type": "air",
    "latitude" : "-15.98",
    "longitude" : "-5.701",
    "latlong" : "-15.9,-5.701"
  },
  {
    "_id": "57ab8c5b1eff02897b163ed5",
    "Common name": "Broad-billed parrot",
    "Scientific name": "Lophopsittacus mauritianus",
    "date": "1680-01-01T00:00:00Z",
    "Range": "Mauritius",
    "Image" :  "--",
    "Description": "--",
    "Type": "air",
    "latitude" : "-20.34",
    "longitude" : "57.55",
    "latlong" : "-20.3,57.55"
  },
  {
    "_id": "57ab8c5b1eff02897b163ed6",
    "Common name": "Canary Islands oystercatcher",
    "Scientific name": "Haematopus meadewaldoi",
    "date": "1940-01-01T00:00:00Z",
    "Range": "Spain (Canary Islands)",
    "Image" :  "--",
    "Description": "--",
    "Type": "air",
    "latitude" : "28.29",
    "longitude" : "-16.62",
    "latlong" : "28.29,-16.62"
  },
  {
    "_id": "57ab8c5b1eff02897b163ed7",
    "Common name": "Canary Islands quail",
    "Scientific name": "Coturnix gomerae",
    "date": "Unkn-01-01T00:00:00Zown",
    "Range": "United Kingdom (Saint Helena)",
    "Image" :  "--",
    "Description": "--",
    "Type": "air",
    "latitude" : "-15.98",
    "longitude" : "-5.71",
    "latlong" : "-15.9,-5.71"
  },
  {
    "_id": "57ab8c5b1eff02897b163ed8",
    "Common name": "Saint Helena dove",
    "Scientific name": "Dysmoropelia dekarchiskos",
    "date": "Afte-01-01T00:00:00Zr 1502",
    "Range": "United Kingdom (Saint Helena)",
    "Image" :  "--",
    "Description": "--",
    "Type": "air",
    "latitude" : "-15.98",
    "longitude" : "-5.71",
    "latlong" : "-15.9,-5.71"
  },
  {
    "_id": "57ab8c5b1eff02897b163ed9",
    "Common name": "Saint Helena hoopoe",
    "Scientific name": "Upupa antaios",
    "date": "Earl-01-01T00:00:00Zy 16th century",
    "Range": "United Kingdom (Saint Helena)",
    "Image" :  "--",
    "Description": "--",
    "Type": "air",
    "latitude" : "-15.98",
    "longitude" : "-5.71",
    "latlong" : "-15.9,-5.71"
  },
  {
    "_id": "57ab8c5b1eff02897b163eda",
    "Common name": "Saint Helena rail",
    "Scientific name": "Porzana astrictocarpus",
    "date": "Afte-01-01T00:00:00Zr 1502",
    "Range": "United Kingdom (Saint Helena)",
    "Image" :  "--",
    "Description": "--",
    "Type": "air",
    "latitude" : "-15.98",
    "longitude" : "-5.71",
    "latlong" : "-15.9,-5.71"
  },
  {
    "_id": "57ab8c5b1eff02897b163edb",
    "Common name": "Seychelles parakeet",
    "Scientific name": "Psittacula wardis",
    "date": "1886-01-01T00:00:00Z",
    "Range": "Seychelles",
    "Image" :  "--",
    "Description": "--",
    "Type": "air",
    "latitude" : "-4.6",
    "longitude" : "55.47",
    "latlong":" -4.6, 55.47"
  },
  {
    "_id": "57ab8c5b1eff02897b163edc",
    "Common name": "Small Saint Helena petrel",
    "Scientific name": "Bulweria bifax",
    "date": "Afte-01-01T00:00:00Zr 1502",
    "Range": "United Kingdom (Saint Helena)",
    "Image" :  "--",
    "Description": "--",
    "Type": "air",
    "latitude" : "-15.98",
    "longitude" : "-5.71",
    "latlong" : "-15.9,-5.71"
  },
  {
    "_id": "57ab8c5b1eff02897b163edd",
    "Common name": "Tristan moorhen",
    "Scientific name": "Gallinula nesiotis",
    "date": "late-01-01T00:00:00Z 19th century",
    "Range": "United Kingdom (Tristan da Cunha)",
    "Image" : "--",
    "Description": "--",
    "Type": "air",
    "latitude" : "-37.10",
    "longitude" : "-12.27",
    "latlong" : "-37.1,-12.27"
  },
  {
    "_id": "57ab8cde1eff02897b163ede",
    "Common name": "Atlas wild ass",
    "Scientific name": "Equus africanus atlanticus",
    "date": "300-01-01T00:00:00Z",
    "Range": "North African",
    "Image" :  "--",
    "Description": "--",
    "Type": "land",
    "latitude" : "18.18",
    "longitude" : "18.28",
    "latlong" : "18.18,18.28"
  },
  {
    "_id": "57ab8cde1eff02897b163edf",
    "Common name": "Canary Islands giant rats",
    "Scientific name": "Canariomys bravoi and Canariomys tamarani",
    "date": "1500-01-01T00:00:00Z",
    "Range": "Spain (Canary Islands)",
    "Image" :  "--",
    "Description": "--",
    "Type": "land",
    "latitude" : "28.29",
    "longitude" : "-16.62",
    "latlong" : "28.29,-16.62"
  },
  {
    "_id": "57ab8cde1eff02897b163ee0",
    "Common name": "Giant aye-aye",
    "Scientific name": "Daubentonia robusta",
    "date": "1000-01-01T00:00:00Z",
    "Range": "Madagascar",
    "Image" :  "--",
    "Description": "--",
    "Type": "land",
    "latitude" :  "-18.766947",
    "longitude" : "46.869107",
    "latlong" :  "-18.76, 46.869107"
  },
  {
    "_id": "57ab8cde1eff02897b163ee1",
    "Common name": "Giant fossa",
    "Scientific name": "Cryptoprocta spelea",
    "date": "Unkn-01-01T00:00:00Zown",
    "Range": "Madagascar",
    "Image" :  "--",
    "Description": "--",
    "Type": "land",
    "latitude" :  "-18.766947",
    "longitude" : "46.869107",
    "latlong" :  "-18.76, 46.869107"
  },
  {
    "_id": "57ab8cde1eff02897b163ee2",
    "Common name": "Hipposideros besaoka",
    "Scientific name": "Hipposideros besaoka",
    "date": "1000-01-01T00:00:00Z0",
    "Range": "Madagascar",
    "Image" :  "--",
    "Description": "--",
    "Type": "land",
    "latitude" :  "-18.766947",
    "longitude" : "46.869107",
    "latlong" :  "-18.76, 46.869107"
  },
  {
    "_id": "57ab8cde1eff02897b163ee3",
    "Common name": "Homotherium",
    "Scientific name": "Homotherium",
    "date": "10,0-01-01T00:00:00Z00",
    "Range": "Africa",
    "Image" :  "--",
    "Description": "--",
    "Type": "land",
    "latitude" : "3.29",
    "longitude" : "22.52",
    "latlong":"3.29,22.52"
  },
  {
    "_id": "57ab8cde1eff02897b163ee4",
    "Common name": "Koala lemur",
    "Scientific name": "Megaladapis",
    "date": "1420-01-01T00:00:00Z",
    "Range": "Madagascar",
    "Image" :  "--",
    "Description": "--",
    "Type": "land",
    "latitude" :  "-18.766947",
    "longitude" : "46.869107",
    "latlong" :  "-18.76, 46.869107"
  },
  {
    "_id": "57ab8cde1eff02897b163ee5",
    "Common name": "Lava mouse",
    "Scientific name": "Malpaisomys insularis",
    "date": "1500-01-01T00:00:00Z",
    "Range": "Spain (Canary Islands)",
    "Image" :  "--",
    "Description": "--",
    "Type": "land",
    "latitude" : "28.29",
    "longitude" : "-16.62",
    "latlong" : "28.29,-16.62"
  },
  {
    "_id": "57ab8cde1eff02897b163ee6",
    "Common name": "Malagasy aardvark",
    "Scientific name": "Plesiorycteropus",
    "date": "200-01-01T00:00:00Z",
    "Range": "Madagascar",
    "Image" :  "--",
    "Description": "--",
    "Type": "land",
    "latitude" :  "-18.766947",
    "longitude" : "46.869107",
    "latlong" :  "-18.76, 46.869107"
  },
  {
    "_id": "57ab8cde1eff02897b163ee7",
    "Common name": "Malagasy hippopotamus",
    "Scientific name": "Hippopotamus",
    "date": "1000-01-01T00:00:00Z",
    "Range": "Madagascar",
    "Image" :  "--",
    "Description": "--",
    "Type": "land",
    "latitude" :  "-18.766947",
    "longitude" : "46.869107",
    "latlong" :  "-18.76, 46.869107"
  },
  {
    "_id": "57ab8cde1eff02897b163ee8",
    "Common name": "Megalotragus",
    "Scientific name": "Megalotragus",
    "date": "10,0-01-01T00:00:00Z00",
    "Range": "Africa",
    "Image" :  "--",
    "Description": "--",
    "Type": "land",
    "latitude" : "3.29",
    "longitude" : "22.52",
    "latlong":"3.29,22.52"
  },
  {
    "_id": "57ab8cde1eff02897b163ee9",
    "Common name": "Microgale macpheei",
    "Scientific name": "Microgale macpheei",
    "date": "100-01-01T00:00:00Z",
    "Range": "Madagascar",
    "Image" :  "--",
    "Description": "--",
    "Type": "land",
    "latitude" :  "-18.766947",
    "longitude" : "46.869107",
    "latlong" :  "-18.76, 46.869107"
  },
  {
    "_id": "57ab8cde1eff02897b163eea",
    "Common name": "North African elephant",
    "Scientific name": "Loxodonta africana pharaoensis",
    "date": "300-01-01T00:00:00Z",
    "Range": "North Africa",
    "Image" :  "--",
    "Description": "--",
    "Type": "land",
    "latitude" : "30.30",
    "longitude" : "12.39",
    "latlong" : "30.30,12.39"
  },
  {
    "_id": "57ab8cde1eff02897b163eeb",
    "Common name": "Pelorovis",
    "Scientific name": "Pelorovis",
    "date": "2000-01-01T00:00:00Z",
    "Range": "Africa",
    "Image" :  "--",
    "Description": "--",
    "Type": "land",
    "latitude" : "3.29",
    "longitude" : "22.52",
    "latlong":"3.29,22.52"
  },
  {
    "_id": "57ab8cde1eff02897b163eec",
    "Common name": "Sivatherium",
    "Scientific name": "Sivatherium",
    "date": "6000-01-01T00:00:00Z",
    "Range": "Africa",
    "Image" :  "--",
    "Description": "--",
    "Type": "land",
    "latitude" : "3.29",
    "longitude" : "22.52",
    "latlong":"3.29,22.52"
  },
  {
    "_id": "57ab8d111eff02897b163eed",
    "Common name": "Atlas bear",
    "Scientific name": "Ursus arctos crowtheri",
    "date": "1870-01-01T00:00:00Z",
    "Range": "North Africa",
    "Image" :  "--",
    "Description": "--",
    "Type": "land",
    "latitude" : "30.30",
    "longitude" : "12.39",
    "latlong" : "30.30,12.39"
  },
  {
    "_id": "57ab8d111eff02897b163eee",
    "Common name": "Aurochs",
    "Scientific name": "Bos primigenius",
    "date": "1627-01-01T00:00:00Z",
    "Range": "North Africa || Europe",
    "Image": "--",
    "latitude":"34.1",
    "longitude" : "-0.26",
    "latlong":"34.1,-0.26"
  },
  {
    "_id": "57ab8d111eff02897b163eef",
    "Common name": "Bluebuck",
    "Scientific name": "Hippotragus leucophaeus",
    "date": "1799-01-01T00:00:00Z",
    "Range": "South Africa",
    "Image" :  "--",
    "Description": "--",
    "Type": "land",
    "latitude" : "-29.82",
    "longitude" : "23.55",
    "latlong" : "-29.8,23.55"
  },
  {
    "_id": "57ab8d111eff02897b163ef0",
    "Common name": "Bubal hartebeest",
    "Scientific name": "Alcelaphus buselaphus buselaphus",
    "date": "1923-01-01T00:00:00Z",
    "Range": "North Africa",
    "Image" :  "--",
    "Description": "--",
    "Type": "land",
    "latitude" : "30.30",
    "longitude" : "12.39",
    "latlong" : "30.30,12.39"
  },
  {
    "_id": "57ab8d111eff02897b163ef1",
    "Common name": "Cape lion",
    "Scientific name": "Panthera leo melanochaitus",
    "date": "1860-01-01T00:00:00Z",
    "Range": "South Africa",
    "Image" :  "--",
    "Description": "--",
    "Type": "land",
    "latitude" : "-29.82",
    "longitude" : "23.55",
    "latlong" : "-29.8,23.55"
  },
  {
    "_id": "57ab8d111eff02897b163ef2",
    "Common name": "Cape serval",
    "Scientific name": "Leptailurus serval serval",
    "date": "Unkn-01-01T00:00:00Zown",
    "Range": "South Africa",
    "Image" :  "--",
    "Description": "--",
    "Type": "land",
    "latitude" : "-29.82",
    "longitude" : "23.55",
    "latlong" : "-29.8,23.55"
  },
  {
    "_id": "57ab8d111eff02897b163ef3",
    "Common name": "Cape warthog",
    "Scientific name": "Phacochoerus aethiopicus aethiopicus",
    "date": "1900-01-01T00:00:00Z",
    "Range": "South Africa",
    "Image" :  "--",
    "Description": "--",
    "Type": "land",
    "latitude" : "-29.82",
    "longitude" : "23.55",
    "latlong" : "-29.8,23.55"
  },
  {
    "_id": "57ab8d111eff02897b163ef4",
    "Common name": "Kenya oribi",
    "Scientific name": "Ourebia ourebi kenyae",
    "date": "Unkn-01-01T00:00:00Zown",
    "Range": "Kenya",
    "Image" :  "--",
    "Description": "--",
    "Type": "land",
    "latitude" : "0.453",
    "longitude" : "37.70",
    "latlong" : "0.453,37.70"
  },
  {
    "_id": "57ab8d111eff02897b163ef5",
    "Common name": "Large sloth lemur",
    "Scientific name": "Palaeopropithecus",
    "date": "1500-01-01T00:00:00Z",
    "Range": "Madagascar",
    "Image" :  "--",
    "Description": "--",
    "Type": "land",
    "latitude" :  "-18.766947",
    "longitude" : "46.869107",
    "latlong" :  "-18.76, 46.869107"
  },
  {
    "_id": "57ab8d111eff02897b163ef6",
    "Common name": "Lesser Mascarene flying fox",
    "Scientific name": "Pteropus subniger",
    "date": "Earl-01-01T00:00:00Zy 19th century",
    "Range": "Mauritius and France (Reunion)",
    "Image" :  "--",
    "Description": "--",
    "Type": "land",
    "latitude" : "-20.26",
    "longitude" : "57.56",
    "latlong" : "-20.2,57.56"
  },
  {
    "_id": "57ab8d111eff02897b163ef7",
    "Common name": "Quagga",
    "Scientific name": "Equus quagga quagga",
    "date": "Augu-01-01T00:00:00Zst 12, 1883",
    "Range": "Namibia and South Africa",
    "Image" :  "--",
    "Description": "--",
    "Type": "land",
    "latitude" : "-21.68",
    "longitude" : "17.75",
    "latlong" : "-21.6,17.75"
  },
  {
    "_id": "57ab8d111eff02897b163ef8",
    "Common name": "Red gazelle",
    "Scientific name": "Eudorcas rufinaa",
    "date": "1894-01-01T00:00:00Z",
    "Range": "Algeria",
    "Image" :  "--",
    "Description": "--",
    "Type": "land",
    "latitude" : "31.80",
    "longitude" :  "3.208",
    "latlong" : "31.80, 3.208"
  },
  {
    "_id": "57ab8d111eff02897b163ef9",
    "Common name": "Robert's lechwe",
    "Scientific name": "Kobus leche robertsi",
    "date": "Unkn-01-01T00:00:00Zown",
    "Range": "South Africa",
    "Image" :  "--",
    "Description": "--",
    "Type": "land",
    "latitude" : "-29.82",
    "longitude" : "23.55",
    "latlong" : "-29.8,23.55"
  },
  {
    "_id": "57ab8d111eff02897b163efa",
    "Common name": "Western black rhinoceros",
    "Scientific name": "Diceros bicornis longipes",
    "date": "1996-01-01T00:00:00Z",
    "Range": "Cameroon",
    "Image" :  "--",
    "Description": "--",
    "Type": "land",
    "latitude" : "4.57",
    "longitude" : "12.56",
    "latlong": "4.57,12.56"
  },
  {
    "_id": "57ab8d401eff02897b163efb",
    "Common name": "Cape Verde giant skink",
    "Scientific name": "Macroscincus coctei",
    "date": "1920-01-01T00:00:00Z",
    "Range": "Cape Verde",
    "Image" :  "--",
    "Description": "--",
    "Type": "land",
    "latitude" : "16.06",
    "longitude" : "-22.78",
    "latlong" : "16.06,-22.78"
  },
  {
    "_id": "57ab8d401eff02897b163efc",
    "Common name": "Domed Mauritius giant tortoise",
    "Scientific name": "Cylindraspis triserrata",
    "date": "Earl-01-01T00:00:00Zy 18th century",
    "Range": "Mauritius",
    "Image" :  "--",
    "Description": "--",
    "Type": "land",
    "latitude" : "-20.34",
    "longitude" : "57.55",
    "latlong" : "-20.3,57.55"
  },
  {
    "_id": "57ab8d401eff02897b163efd",
    "Common name": "Domed Rodrigues giant tortoise",
    "Scientific name": "Cylindraspis peltastes",
    "date": "1800-01-01T00:00:00Z",
    "Range": "Mauritius",
    "Image" :  "--",
    "Description": "--",
    "Type": "land",
    "latitude" : "-20.34",
    "longitude" : "57.55",
    "latlong" : "-20.3,57.55"
  },
  {
    "_id": "57ab8d401eff02897b163efe",
    "Common name": "Eastwood's long-tailed seps",
    "Scientific name": "Tetradactylus eastwoodae",
    "date": "1912-01-01T00:00:00Z",
    "Range": "South Africa",
    "Image" :  "--",
    "Description": "--",
    "Type": "land",
    "latitude" : "-29.82",
    "longitude" : "23.55",
    "latlong" : "-29.8,23.55"
  },
  {
    "_id": "57ab8d401eff02897b163eff",
    "Common name": "Hoffstetter's worm snake",
    "Scientific name": "Typhlops cariei",
    "date": "Unkn-01-01T00:00:00Zown",
    "Range": "Mauritius",
    "Image" :  "--",
    "Description": "--",
    "Type": "land",
    "latitude" : "-20.34",
    "longitude" : "57.55",
    "latlong" : "-20.3,57.55"
  },
  {
    "_id": "57ab8d401eff02897b163f00",
    "Common name": "Mauritian giant skink",
    "Scientific name": "Didosaurus maurtianus",
    "date": "1650-01-01T00:00:00Z",
    "Range": "Mauritius",
    "Image" :  "--",
    "Description": "--",
    "Type": "land",
    "latitude" : "-20.34",
    "longitude" : "57.55",
    "latlong" : "-20.3,57.55"
  },
  {
    "_id": "57ab8d401eff02897b163f01",
    "Common name": "Mozambique centipede-eater",
    "Scientific name": "Aparallactus nigriceps",
    "date": "1840-01-01T00:00:00Z",
    "Range": "France (Reunion)",
    "Image" :  "--",
    "Description": "--",
    "Type": "land",
    "latitude" : "-21.14",
    "longitude" : "55.65",
    "latlong" : "-21.1,55.65"
  },
  {
    "_id": "57ab8d401eff02897b163f02",
    "Common name": "Rodrigues day gecko",
    "Scientific name": "Phelsuma edwardnewtoni",
    "date": "1917-01-01T00:00:00Z",
    "Range": "Mauritius",
    "Image" :  "--",
    "Description": "--",
    "Type": "land",
    "latitude" : "-20.34",
    "longitude" : "57.55",
    "latlong" : "-20.3,57.55"
  },
  {
    "_id": "57ab8d401eff02897b163f03",
    "Common name": "Rodrigues giant day gecko",
    "Scientific name": "Phelsuma gigas",
    "date": "1842-01-01T00:00:00Z",
    "Range": "Mauritius",
    "Image" :  "--",
    "Description": "--",
    "Type": "land",
    "latitude" : "-20.34",
    "longitude" : "57.55",
    "latlong" : "-20.3,57.55"
  },
  {
    "_id": "57ab8d401eff02897b163f04",
    "Common name": "Roque Chico de Salmor giant lizard",
    "Scientific name": "Gallotia simonyi simonyi",
    "date": "1930-01-01T00:00:00Z",
    "Range": "Spain (Canary Islands)",
    "Image" :  "--",
    "Description": "--",
    "Type": "land",
    "latitude" : "28.29",
    "longitude" : "-16.62",
    "latlong" : "28.29,-16.62"
  },
  {
    "_id": "57ab8d401eff02897b163f05",
    "Common name": "Round Island burrowing boa",
    "Scientific name": "Bolyeria multocarinata",
    "date": "1975-01-01T00:00:00Z",
    "Range": "Mauritius",
    "Image" :  "--",
    "Description": "--",
    "Type": "land",
    "latitude" : "-20.34",
    "longitude" : "57.55",
    "latlong" : "-20.3,57.55"
  },
  {
    "_id": "57ab8d401eff02897b163f06",
    "Common name": "Saddle-backed Mauritius giant tortoise",
    "Scientific name": "Cylindraspis inepta",
    "date": "Earl-01-01T00:00:00Zy 18th century",
    "Range": "Mauritius",
    "Image" :  "--",
    "Description": "--",
    "Type": "land",
    "latitude" : "-20.34",
    "longitude" : "57.55",
    "latlong" : "-20.3,57.55"
  },
  {
    "_id": "57ab8d401eff02897b163f07",
    "Common name": "Saddle-backed Rodrigues giant tortoise",
    "Scientific name": "Cylindraspis vosmaeri",
    "date": "1800-01-01T00:00:00Z",
    "Range": "Mauritius",
    "Image" :  "--",
    "Description": "--",
    "Type": "land",
    "latitude" : "-20.34",
    "longitude" : "57.55",
    "latlong" : "-20.3,57.55"
  },
  {
    "_id": "57ab8d611eff02897b163f08",
    "Common name": "Turquoise-throated puffleg",
    "Scientific Name": "Eriocnemis godini",
    "date": "1850-01-01T00:00:00Z",
    "Range": "Colombia and Ecuador",
    "Image" :  "--",
    "Description": "--",
    "Type": "land",
    "latitude" : "2.48",
    "longitude" : "-75.76",
    "latlong" : "2.48, 75.76"
  },
  {
    "_id": "57ab8d611eff02897b163f09",
    "Common name": "Atelopus ignescens",
    "Scientific Name": "Atelopus ignescens",
    "date": "Unkn-01-01T00:00:00Zown",
    "Range": "Ecuador",
    "Image" :  "--",
    "Description": "--",
    "Type": "land",
    "latitude" : "-1.13",
    "longitude" : "-77.16",
    "latlong" : "-1.13,-77.16"
  },
  {
    "_id": "57ab8d611eff02897b163f0a",
    "Common name": "Atelopus longirostris",
    "Scientific Name": "Atelopus longirostris",
    "date": "1989-01-01T00:00:00Z",
    "Range": "Ecuador",
    "Image" :  "--",
    "Description": "--",
    "Type": "land",
    "latitude" : "-1.13",
    "longitude" : "-77.16",
    "latlong" : "-1.13,-77.16"
  },
  {
    "_id": "57ab8d611eff02897b163f0b",
    "Common name": "Atelopus vogli",
    "Scientific Name": "Atelopus vogli",
    "date": "1933-01-01T00:00:00Z",
    "Range": "Venezuela",
    "Image" :  "--",
    "Description": "--",
    "Type": "land",
    "latitude" : "6.63",
    "longitude" : "-65.21",
    "latlong" : "6.63,-65.21"
  },
  {
    "_id": "57ab8d611eff02897b163f0c",
    "Common name": "Spiny-knee leaf frog",
    "Scientific Name": "Phrynomedusa fimbriata",
    "date": "1920-01-01T00:00:00Z",
    "Range": "Brazil",
    "Image" :  "--",
    "Description": "--",
    "Type": "land",
    "latitude" : "-12.54",
    "longitude" : "-53.08",
    "latlong" : "-12.5,-53.08"
  },
  {
    "_id": "57ab8d611eff02897b163f0d",
    "Common name": "Chile Darwin's frog",
    "Scientific Name": "Rhinoderma rufum",
    "date": "1980-01-01T00:00:00Z",
    "Range": "Chile",
    "Image" :  "--",
    "Description": "--",
    "Type": "land",
    "latitude" : "-47.74",
    "longitude" : "-73.12",
    "latlong" : "-47.7,-73.12"
  },
  {
    "_id": "57ab8d611eff02897b163f0e",
    "Common name": "Charles Island tortoise",
    "Scientific Name": "Chelonoidis nigra nigra",
    "date": "1850-01-01T00:00:00Z",
    "Range": "Ecuador (Galapagos Islands)",
    "Image" :  "--",
    "Description": "--",
    "Type": "land",
    "latitude" : "-0.73",
    "longitude" : "-91.06",
    "latlong" : "-0.73,-91.06"
  },
  {
    "_id": "57ab8d611eff02897b163f0f",
    "Common name": "Pinta Island tortoise",
    "Scientific Name": "Chelonoidis nigra abingdonii",
    "date": "2012-01-01T00:00:00Z",
    "Range": "Ecuador (Galapagos Islands)",
    "Image" :  "--",
    "Description": "--",
    "Type": "land",
    "latitude" : "-0.73",
    "longitude" : "-91.06",
    "latlong" : "-0.73,-91.06"
  },
  {
    "_id": "57ab8d7c1eff02897b163f10",
    "Common name": "Alejandro Selkirk Island Firecrown",
    "Scientific Name": "Sephanoides fernandensis leyboldi",
    "date": "1908-01-01T00:00:00Z",
    "Range": "Chile",
    "Image" :  "--",
    "Description": "--",
    "Type": "air",
    "latitude" : "-47.74",
    "longitude" : "-73.12",
    "latlong" : "-47.7,-73.12"
  },
  {
    "_id": "57ab8d7c1eff02897b163f11",
    "Common name": "Colombian grebe",
    "Scientific Name": "Podiceps andinus",
    "date": "1970-01-01T00:00:00Z",
    "Range": "Colombia",
    "Image" :  "--",
    "Description": "--",
    "Type": "air",
    "latitude" : "2.47",
    "longitude" : "-72.07",
    "latlong" : "2.47, -72.07"
  },
  {
    "_id": "57ab8d7c1eff02897b163f12",
    "Common name": "Darwin's ground finch",
    "Scientific Name": "Geospiza magnirostris magnirostris",
    "date": "1957-01-01T00:00:00Z",
    "Range": "Ecuador (Galapagos Islands)",
    "Image" :  "--",
    "Description": "--",
    "Type": "air",
    "latitude" : "-0.73",
    "longitude" : "-91.06",
    "latlong" : "-0.73,-91.06"
  },
  {
    "_id": "57ab8d7c1eff02897b163f13",
    "Common name": "Niceforo's pintail",
    "Scientific Name": "Anas georgica niceforoi",
    "date": "1952-01-01T00:00:00Z",
    "Range": "Colombia",
    "Image" :  "--",
    "Description": "--",
    "Type": "air",
    "latitude" : "2.47",
    "longitude" : "-72.07",
    "latlong" : "2.47,-72.07"
  },
  {
    "_id": "57ab8d7c1eff02897b163f14",
    "Common name": "San Cristabal vermilion flycatcher",
    "Scientific Name": "Pyrocephalus rubinus dubius",
    "date": "1980-01-01T00:00:00Z",
    "Range": "Ecuador (Galapagos Islands)",
    "Image" :  "--",
    "Description": "--",
    "Type": "air",
    "latitude" : "-0.73",
    "longitude" : "-91.06",
    "latlong" : "-0.73,-91.06"
  },
  {
    "_id": "57ab8d7c1eff02897b163f15",
    "Common name": "Red-throated wood-rail",
    "Scientific Name": "Aramides gutturalis",
    "date": "1843-01-01T00:00:00Z",
    "Range": "Peru",
    "Image" :  "--",
    "Description": "--",
    "Type": "air",
    "latitude" : "-10.21",
    "longitude" : "-73.56",
    "latlong" : "-10.2,-73.56"
  },
  {
    "_id": "57ab8d7c1eff02897b163f16",
    "Common name": "Antioquia brush finch",
    "Scientific Name": "Heliangelus zusii",
    "date": "1971-01-01T00:00:00Z",
    "Range": "Colombia",
    "Image" :  "--",
    "Description": "--",
    "Type": "air",
    "latitude" : "2.47",
    "longitude" : "-72.07",
    "latlong" : "2.47,-72.07"
  },
  {
    "_id": "57ab8d7c1eff02897b163f17",
    "Common name": "Bogota SunAngel",
    "Scientific Name": "Heliangelus zusii",
    "date": "1907-01-01T00:00:00Z",
    "Range": "Colombia",
    "Image" :  "--",
    "Description": "--",
    "Type": "air",
    "latitude" : "2.47",
    "longitude" : "-72.07",
    "latlong": "2.47,7.07"
  },
  {
    "_id": "57ab8d7c1eff02897b163f18",
    "Common name": "Eskimo Curlew",
    "Scientific Name": "Numenius borealis",
    "date": "1939-01-01T00:00:00Z",
    "Range": "Brazil and Argentina",
    "Image" :  "--",
    "Description": "--",
    "Type": "air",
    "latitude" : "-28.21",
    "longitude" : "-56.33",
    "latlong" : "-28.2,-56.33"
  },
  {
    "_id": "57ab8d7c1eff02897b163f19",
    "Common name": "Glaucous macaw",
    "Scientific Name": "Anodorhynchus glaucus",
    "date": "1960-01-01T00:00:00Z",
    "Range": "Argentina, Brazil, Paraguay and Uruguay",
    "Image" :  "--",
    "Description": "--",
    "Type": "air",
    "latitude" : "-28.21",
    "longitude" : "-56.33",
    "latlong" : "-28.2,-56.33"
  },
  {
    "_id": "57ab8d7c1eff02897b163f1a",
    "Common name": "Hooded seedeater",
    "Scientific Name": "Sporophila melanops",
    "date": "1823-01-01T00:00:00Z",
    "Range": "Brazil",
    "Image" :  "--",
    "Description": "--",
    "Type": "air",
    "latitude" : "-12.54",
    "longitude" : "-53.08",
    "latlong" : "-12.5,-53.08"
  },
  {
    "_id": "57ab8d7c1eff02897b163f1b",
    "Common name": "Letitia's thorntail",
    "Scientific Name": "Discosura letitiae",
    "date": "1852-01-01T00:00:00Z",
    "Range": "Bolivia",
    "Image" :  "--",
    "Description": "--",
    "Type": "air",
    "latitude" : "-16.11",
    "longitude" : "-64.77",
    "latlong" : "-16.1,-64.77"
  },
  {
    "_id": "57ab8d7c1eff02897b163f1c",
    "Common name": "Tachira antpitta",
    "Scientific Name": "Grallaria chthonia",
    "date": "1956-01-01T00:00:00Z",
    "Range": "Venezuela",
    "Image" :  "--",
    "Description": "--",
    "Type": "air",
    "latitude" : "6.63",
    "longitude" : "-65.21",
    "latlong" : "6.63,-65.21"
  },
  {
    "_id": "57ab8d8c1eff02897b163f1d",
    "Common name": "Amazonian smilodon",
    "Scientific Name": "Smilodon populator",
    "date": "10,0-01-01T00:00:00Z00",
    "Range": "Northern South Ameica",
    "Image" :  "--",
    "Description": "--",
    "Type": "land",
    "latitude" : "-3.23",
    "longitude" : "-57.12",
    "latlong" : "-3.23,-57.12"
  },
  {
    "_id": "57ab8d8c1eff02897b163f1e",
    "Common name": "Antifer",
    "Scientific Name": "Antifer crassus",
    "date": "1100-01-01T00:00:00Z0",
    "Range": "Argentina, Brazil and Chile",
    "Image" :  "--",
    "Description": "--",
    "Type": "land",
    "latitude" : "-47.74",
    "longitude" : "-73.12",
    "latlong" : "-47.7,-73.12"
  },
  {
    "_id": "57ab8d8c1eff02897b163f1f",
    "Common name": "Arctotherium",
    "Scientific Name": "Arctotherium sp.",
    "date": "1100-01-01T00:00:00Z0",
    "Range": "South America",
    "Image" :  "--",
    "Description": "--",
    "Type": "land",
    "latitude" : "-16.95",
    "longitude" : "-57.74",
    "latlong" : "-16.9,-57.74"
  },
  {
    "_id": "57ab8d8c1eff02897b163f20",
    "Common name": "Canis nehringi",
    "Scientific Name": "Canis nehringi",
    "date": "8000-01-01T00:00:00Z",
    "Range": "South America",
    "Image" :  "--",
    "Description": "--",
    "Type": "land",
    "latitude" : "-16.95",
    "longitude" : "-57.74",
    "latlong" : "-16.9,-57.74"
  },
  {
    "_id": "57ab8d8c1eff02897b163f21",
    "Common name": "Cuvieronius",
    "Scientific Name": "Cuvieronius sp.",
    "date": "4000-01-01T00:00:00Z",
    "Range": "South America",
    "Image" :  "--",
    "Description": "--",
    "Type": "land",
    "latitude" : "-16.95",
    "longitude" : "-57.74",
    "latlong" : "-16.9,-57.74"
  },
  {
    "_id": "57ab8d8c1eff02897b163f22",
    "Common name": "Dire wolf",
    "Scientific Name": "Canis dirus",
    "date": "1100-01-01T00:00:00Z0",
    "Range": "South America",
    "Image" :  "--",
    "Description": "--",
    "Type": "land",
    "latitude" : "-16.95",
    "longitude" : "-57.74",
    "latlong" : "-16.9,-57.74"
  },
  {
    "_id": "57ab8d8c1eff02897b163f23",
    "Common name": "Ground sloths",
    "Scientific Name": "Catonyx",
    "date": "6000-01-01T00:00:00Z",
    "Range": "South America",
    "Image" :  "--",
    "Description": "--",
    "Type": "land",
    "latitude" : "-16.95",
    "longitude" : "-57.74",
    "latlong" : "-16.9,-57.74"
  },
  {
    "_id": "57ab8d8c1eff02897b163f24",
    "Common name": "Glyptodontidaes",
    "Scientific Name": "Doedicurus",
    "date": "1100-01-01T00:00:00Z0",
    "Range": "South America",
    "Image" :  "--",
    "Description": "--",
    "Type": "land",
    "latitude" : "-16.95",
    "longitude" : "-57.74",
    "latlong" : "-16.9,-57.74"
  },
  {
    "_id": "57ab8d8c1eff02897b163f25",
    "Common name": "Hippidion",
    "Scientific Name": "Hippidion",
    "date": "1000-01-01T00:00:00Z0",
    "Range": "South America",
    "Image" :  "--",
    "Description": "--",
    "Type": "land",
    "latitude" : "-16.95",
    "longitude" : "-57.74",
    "latlong" : "-16.9,-57.74"
  },
  {
    "_id": "57ab8d8c1eff02897b163f26",
    "Common name": "Macrauchenia",
    "Scientific Name": "Macrauchenia sp.",
    "date": "1000-01-01T00:00:00Z0",
    "Range": "South America",
    "Image" :  "--",
    "Description": "--",
    "Type": "land",
    "latitude" : "-16.95",
    "longitude" : "-57.74",
    "latlong" : "-16.9,-57.74"
  },
  {
    "_id": "57ab8d8c1eff02897b163f27",
    "Common name": "Neochoerus",
    "Scientific Name": "Neochoerus sp.",
    "date": "1000-01-01T00:00:00Z0",
    "Range": "South America",
    "Image" :  "--",
    "Description": "--",
    "Type": "land",
    "latitude" : "-16.95",
    "longitude" : "-57.74",
    "latlong" : "-16.9,-57.74"
  },
  {
    "_id": "57ab8d8c1eff02897b163f28",
    "Common name": "Stegomastodon",
    "Scientific Name": "Stegomastodon sp.",
    "date": "1000-01-01T00:00:00Z0",
    "Range": "South America",
    "Image" :  "--",
    "Description": "--",
    "Type": "land",
    "latitude" : "-16.95",
    "longitude" : "-57.74",
    "latlong" : "-16.9,-57.74"
  },
  {
    "_id": "57ab8d8c1eff02897b163f29",
    "Common name": "Stout-legged llama",
    "Scientific Name": "Palaeolama mirifica",
    "date": "1000-01-01T00:00:00Z0",
    "Range": "South America",
    "Image" :  "--",
    "Description": "--",
    "Type": "land",
    "latitude" : "-16.95",
    "longitude" : "-57.74",
    "latlong" : "-16.9,-57.74"
  },
  {
    "_id": "57ab8d8c1eff02897b163f2a",
    "Common name": "Theriodictis",
    "Scientific Name": "Theriodictis sp.",
    "date": "1100-01-01T00:00:00Z0",
    "Range": "Bolivia, Brazil and Paraguay",
    "Image" :  "--",
    "Description": "--",
    "Type": "land",
    "latitude" : "-16.79",
    "longitude" : "-62.40",
    "latlong" : "-16.7,-62.40"
  },
  {
    "_id": "57ab8d8c1eff02897b163f2b",
    "Common name": "Toxodon",
    "Scientific Name": "Toxodon sp.",
    "date": "1650-01-01T00:00:00Z0",
    "Range": "South America",
    "Image" :  "--",
    "Description": "--",
    "Type": "land",
    "latitude" : "-16.95",
    "longitude" : "-57.74",
    "latlong" : "-16.9,-57.74"
  },
  {
    "_id": "57ab8d8c1eff02897b163f2c",
    "Common name": "Xenorhinotherium",
    "Scientific Name": "Xenorhinotherium bahiensis",
    "date": "1000-01-01T00:00:00Z0",
    "Range": "Brazil and Venezuela",
    "Image" :  "--",
    "Description": "--",
    "Type": "land",
    "latitude" : "6.63",
    "longitude" : "-65.21",
    "latlong" : "6.63, -65.21"
  },
  {
    "_id": "57ab8d8c1eff02897b163f2d",
    "Common name": "Candango mouse",
    "Scientific Name": "Juscelinomys candango",
    "date": "1960-01-01T00:00:00Z",
    "Range": "Brazil",
    "Image" :  "--",
    "Description": "--",
    "Type": "land",
    "latitude" : "-12.54",
    "longitude" : "-53.08",
    "latlong" : "-12.5,-53.08"
  },
  {
    "_id": "57ab8d8c1eff02897b163f2f",
    "Common name": "Darwin's rice rat",
    "cientific name": "Nesoryzomys darwini",
    "date": "1929-01-01T00:00:00Z",
    "Range": "Ecuador (Galapagos Islands)",
    "Image" :  "--",
    "Description": "--",
    "Type": "land",
    "latitude" : "-0.73",
    "longitude" : "-91.06",
    "latlong" : "-0.73,-91.06"
  },
  {
    "_id": "57ab8d8c1eff02897b163f31",
    "Common name": "Galapagos giant rat",
    "Scientific Name": "Megaoryzomys curioi",
    "date": "Unkn-01-01T00:00:00Zown",
    "Range": "Ecuador (Galapagos Islands)",
    "Image" :  "--",
    "Description": "--",
    "Type": "land",
    "latitude" : "-0.73",
    "longitude" : "-91.06",
    "latlong" : "-0.73,-91.06"
  },
  {
    "_id": "57ab8d8c1eff02897b163f32",
    "Common name": "Indefatigable Galapagos mouse",
    "Scientific Name": "Nesoryzomys indefessus",
    "date": "1930-01-01T00:00:00Z",
    "Range": "Ecuador (Galapagos Islands)",
    "Image" :  "--",
    "Description": "--",
    "Type": "land",
    "latitude" : "-0.73",
    "longitude" : "-91.06",
    "latlong" : "-0.73,-91.06"
  },
  {
    "_id": "57ab8d8c1eff02897b163f33",
    "Common name": "Giant vampire bat",
    "Scientific Name": "Desmodus draculae",
    "date": "Unkn-01-01T00:00:00Zown",
    "Range": "Bolivia, Brazil & Venezuela",
    "Image" :  "--",
    "Description": "--",
    "Type": "land",
    "latitude" : "6.63",
    "longitude" : "-65.21",
    "latlong" : "6.63, 6.21"
  },
  {
    "_id": "57ab8d8c1eff02897b163f34",
    "Common name": "Peruvian viscacha",
    "Scientific Name": "Lagostomus crassus",
    "date": "1910-01-01T00:00:00Z",
    "Range": "Peru",
    "Image" :  "--",
    "Description": "--",
    "Type": "land",
    "latitude" : "-10.21",
    "longitude" : "-73.56",
    "latlong" : "-10.2,-73.56"
  },
  {
    "_id": "57ab8d8c1eff02897b163f36",
    "Common name": "Vespucci's rodent",
    "Scientific Name": "Noronhomys vespuccii",
    "date": "1503-01-01T00:00:00Z",
    "Range": "Brazil",
    "Image" :  "--",
    "Description": "--",
    "Type": "land",
    "latitude" : "-12.54",
    "longitude" : "-53.08",
    "latlong" : "-12.5,-53.08"
  },
  {
    "_id": "57ab8d8c1eff02897b163f38",
    "Common name": "Pacific degu",
    "Scientific Name": "Octodon pacificus",
    "date": "1994-01-01T00:00:00Z",
    "Range": "Mocha Island, Chile",
    "Image" :  "--",
    "Description": "--",
    "Type": "land",
    "latitude" : "-47.74",
    "longitude" : "-73.12",
    "latlong" : "-47.7,-73.12"
  },
  {
    "_id": "57ab8d8c1eff02897b163f39",
    "Common name": "Zuniga's dark rice rat",
    "Scientific Name": "Melanomys zunigae",
    "date": "1942-01-01T00:00:00Z",
    "Range": "Peru",
    "Image" :  "--",
    "Description": "--",
    "Type": "land",
    "latitude" : "-10.21",
    "longitude" : "-73.56",
    "latlong" : "-10.2,-73.56"
  },
 {
    "_id": "57ab8f0d1eff02897b163f3a",
    "Common name": "Arabian ostrich",
    "Scientific name": "Struthio camelus syriacus",
    "date": "1966-01-01T00:00:00Z",
    "Range": "Middle East",
    "Image": "--",
    "Description": "--",
    "Type": "air",
    "latitude":"29.16",
    "longitude":"42.02",
    "latlong":"29.16,42.02"
  },
  {
    "_id": "57ab8f0d1eff02897b163f3b",
    "Common name": "Asiatic ostrich",
    "Scientific name": "Struthio asiaticus",
    "date": "1000-01-01T00:00:00Z0",
    "Range": "Middle East to Central Asia",
    "Image": "--",
    "Description": "--",
    "Type": "air",
    "latitude":"29.16",
    "longitude":"42.02",
    "latlong":"29.16,42.02"
  },
  {
    "_id": "57ab8f0d1eff02897b163f3c",
    "Common name": "Bering Cackling Goose",
    "Scientific name": "Branta hutchinsii asiatica",
    "date": "1929-01-01T00:00:00Z",
    "Range": "Russia (Komandorski and Kuril Islands)",
    "Image": "--",
    "Description": "--",
    "Type": "air",
    "latitude":"62.73",
    "longitude":"98.44",
    "latlong":"62.73,98.44"
  },
  {
    "_id": "57ab8f0d1eff02897b163f3d",
    "Common name": "Bonin grosbeak",
    "Scientific name": "Carpodacus ferreorostris",
    "date": "1828-01-01T00:00:00Z",
    "Range": "Japan (Bonin Islands)",
    "Image": "--",
    "Description": "--",
    "Type": "air",
    "latitude":"27.03",
    "longitude":"142.20",
    "latlong":"27.03,142.20"
  },
  {
    "_id": "57ab8f0d1eff02897b163f3e",
    "Common name": "Bonin nankeen night heron",
    "Scientific name": "Nycticorax caledonicus crassirostris",
    "date": "1889-01-01T00:00:00Z",
    "Range": "Japan (Bonin Islands)",
    "Image": "--",
    "Description": "--",
    "Type": "air",
    "latitude":"27.03",
    "longitude":"142.20",
    "latlong":"27.03,142.20"
  },
  {
    "_id": "57ab8f0d1eff02897b163f3f",
    "Common name": "Bonin thrush",
    "Scientific name": "Zoothera terrestris",
    "date": "1827-01-01T00:00:00Z",
    "Range": "Japan (Bonin Islands)",
    "Image": "--",
    "Description": "--",
    "Type": "air",
    "latitude":"27.03",
    "longitude":"142.20",
    "latlong":"27.03,142.20"
  },
  {
    "_id": "57ab8f0d1eff02897b163f40",
    "Common name": "Bonin wood pigeon",
    "Scientific name": "Columba versicolor",
    "date": "1889-01-01T00:00:00Z",
    "Range": "Japan (Bonin Islands)",
    "Image": "--",
    "Description": "--",
    "Type": "air",
    "latitude":"27.03",
    "longitude":"142.20",
    "latlong":"27.03,142.20"
  },
  {
    "_id": "57ab8f0d1eff02897b163f41",
    "Common name": "Cebu hanging parrot",
    "Scientific name": "Loriculus philippensis chrysonotus",
    "date": "Unkn-01-01T00:00:00Zown",
    "Range": "Philippines (Cebu)",
    "Image": "--",
    "Description": "--",
    "Type": "air",
    "latitude":"10.40",
    "longitude":"123.80",
    "latlong":"10.40,123.80"
  },
  {
    "_id": "57ab8f0d1eff02897b163f42",
    "Common name": "Cyprus dipper",
    "Scientific name": "Cinclus cinclus olympicus",
    "date": "1950-01-01T00:00:00Z",
    "Range": "Cyprus",
    "Image": "--",
    "Description": "--",
    "Type": "air",
    "latitude":"34.93",
    "longitude":"33.14",
    "latlong":"34.93,33.14"
  },
  {
    "_id": "57ab8f0d1eff02897b163f43",
    "Common name": "Mukojima white-eye",
    "Scientific name": "Apalopteron familiare familiare",
    "date": "1930-01-01T00:00:00Z",
    "Range": "Japan (Bonin Islands)",
    "Image": "--",
    "Description": "--",
    "Type": "air",
    "latitude":"27.03",
    "longitude":"142.20",
    "latlong":"27.03,142.20"
  },
  {
    "_id": "57ab8f0d1eff02897b163f44",
    "Common name": "Ryukyu kingfisher",
    "Scientific name": "Todiramphus miyakoensis",
    "date": "1887-01-01T00:00:00Z",
    "Range": "Japan (Ryukyu Islands)",
    "Image": "--",
    "Description": "--",
    "Type": "air",
    "latitude":"26.49",
    "longitude":"127.99",
    "latlong":"26.49,127.99"
  },
  {
    "_id": "57ab8f0d1eff02897b163f45",
    "Common name": "Ryukyu wood pigeon",
    "Scientific name": "Columba jouyi",
    "date": "1936-01-01T00:00:00Z",
    "Range": "Japan (Ryukyu Islands)",
    "Image": "--",
    "Description": "--",
    "Type": "air",
    "latitude":"26.49",
    "longitude":"127.99",
    "latlong":"26.49,127.99"
  },
  {
    "_id": "57ab8f0d1eff02897b163f46",
    "Common name": "Spectacled cormorant",
    "Scientific name": "Phalacrocorax perspicillatus",
    "date": "1850-01-01T00:00:00Z",
    "Range": "Russia",
    "Image": "--",
    "Description": "--",
    "Type": "air",
    "latitude":"62.73",
    "longitude":"98.44",
    "latlong":"62.73,98.44"
  },
  {
    "_id": "57ab8f211eff02897b163f47",
    "Common name": "Aurochs",
    "Scientific name": "Bos primigenius",
    "date": "Indi-01-01T00:00:00Za (9000), Eurasia (1627)",
    "Range": "Northern Asia and Indian Sontinent",
    "Image": "--",
    "Description": "--",
    "Type": "land",
    "latitude":"49.10",
    "longitude":"108.78",
    "latlong":"49.10,108.78"
  },
  {
    "_id": "57ab8f211eff02897b163f48",
    "Common name": "Bali tiger",
    "Scientific name": "Panthera tigris balica",
    "date": "1937-01-01T00:00:00Z",
    "Range": "Indonesia (Bali)",
    "Image": "--",
    "Description": "--",
    "Type": "land",
    "latitude":"-8.34",
    "longitude":"115.08",
    "latlong":"-8.34,115.08"
  },
  {
    "_id": "57ab8f211eff02897b163f49",
    "Common name": "Buhler's coryphomys",
    "Scientific name": "Coryphomys buehleri",
    "date": "1500-01-01T00:00:00Z",
    "Range": "Indonesia (Timor)",
    "Image": "--",
    "Description": "--",
    "Type": "land",
    "latitude":"-9.88",
    "longitude":"124.33",
    "latlong":"-9.88,124.33"
  },
  {
    "_id": "57ab8f211eff02897b163f4a",
    "Common name": "Caspian tiger",
    "Scientific name": "Panthera tigris virgata",
    "date": "1970-01-01T00:00:00Z",
    "Range": "Turkey to China",
    "Image": "--",
    "Description": "--",
    "Type": "land",
    "latitude":"36.65",
    "longitude":"64.03",
    "latlong":"36.65,64.03"
  },
  {
    "_id": "57ab8f211eff02897b163f4b",
    "Common name": "Caucasian moose",
    "Scientific name": "Alces alces caucasicus",
    "date": "1850-01-01T00:00:00Z",
    "Range": "Caucasus Mountains, Iran and Turkey",
    "Image": "--",
    "Description": "--",
    "Type": "land",
    "latitude":"38.51",
    "longitude":"44.35",
    "latlong":"38.51,44.35"
  },
  {
    "_id": "57ab8f211eff02897b163f4c",
    "Common name": "Caucasian wisent",
    "Scientific name": "Bison bonasus caucasicus",
    "date": "1925-01-01T00:00:00Z",
    "Range": "Caucasus Mountains",
    "Image": "--",
    "Description": "--",
    "Type": "land",
    "latitude":"38.51",
    "longitude":"44.35",
    "latlong":"38.51,44.35"
  },
  {
    "_id": "57ab8f211eff02897b163f4d",
    "Common name": "Cebu warty pig",
    "Scientific name": "Sus cebifrons cebifrons",
    "date": "1951-01-01T00:00:00Z",
    "Range": "Yemen",
    "Image": "--",
    "Description": "--",
    "Type": "land",
    "latitude":"15.29",
    "longitude":"46.73",
    "latlong":"15.29,46.73"
  },
  {
    "_id": "57ab8f211eff02897b163f4e",
    "Common name": "Flores cave rat",
    "Scientific name": "Spelaeomys florensis",
    "date": "1500-01-01T00:00:00Zs",
    "Range": "Indonesia (Flores)",
    "Image": "--",
    "Description": "--",
    "Type": "land",
    "latitude":"-8.77",
    "longitude":"121.06",
    "latlong":"-8.77,121.06"
  },
  {
    "_id": "57ab8f211eff02897b163f4f",
    "Common name": "Flores long-nosed rat",
    "Scientific name": "Paulamys naso",
    "date": "1500-01-01T00:00:00Zs",
    "Range": "Indonesia (Flores)",
    "Image": "--",
    "Description": "--",
    "Type": "land",
    "latitude":"-8.77",
    "longitude":"121.06",
    "latlong":"-8.77,121.06"
  },
  {
    "_id": "57ab8f211eff02897b163f50",
    "Common name": "Formosan clouded leopard",
    "Scientific name": "Neofelis nebulosa brachyura",
    "date": "1990-01-01T00:00:00Zs",
    "Range": "Taiwan",
    "Image": "--",
    "Description": "--",
    "Type": "land",
    "latitude":"23.69",
    "longitude":"121.01",
    "latlong":"23.69,121.01"
  },
  {
    "_id": "57ab8f211eff02897b163f51",
    "Common name": "Hokkaidō wolf",
    "Scientific name": "Canis lupus hattai",
    "date": "1889-01-01T00:00:00Z",
    "Range": "Japan (Hokkaidō)",
    "Image": "--",
    "Description": "--",
    "Type": "land",
    "latitude":"43.25",
    "longitude":"142.66",
    "latlong":"43.25,142.66"
  },
  {
    "_id": "57ab8f211eff02897b163f52",
    "Common name": "Honshū wolf",
    "Scientific name": "Canis lupus hodophilax",
    "date": "1905-01-01T00:00:00Z",
    "Range": "Japan (Honshū)",
    "Image": "--",
    "Description": "--",
    "Type": "land",
    "latitude":"35.97",
    "longitude":"138.23",
    "latlong":"35.97,138.23"
  },
  {
    "_id": "57ab8f211eff02897b163f53",
    "Common name": "Ilin Island Cloudrunner",
    "Scientific name": "Crateromys paulus",
    "date": "Apri-01-01T00:00:00Zl 4, 1953",
    "Range": "Philippines",
    "Image": "--",
    "Description": "--",
    "Type": "land",
    "latitude":"11.46",
    "longitude":"123.32",
    "latlong":"11.46,123.32"
  },
  {
    "_id": "57ab8f211eff02897b163f54",
    "Common name": "Indian Javan rhinoceros",
    "Scientific name": "Rhinoceros sondaicus inermis",
    "date": "Befo-01-01T00:00:00Zre 1925",
    "Range": "Bangladesh, Burma (Myanmar), and India",
    "Image": "--",
    "Description": "--",
    "Type": "land",
    "latitude":"23.21",
    "longitude":"92.89",
    "latlong":"23.21,92.89"
  },
  {
    "_id": "57ab8f211eff02897b163f55",
    "Common name": "Japanese river otter",
    "Scientific name": "Lutra lutra whiteleyi",
    "date": "1979-01-01T00:00:00Z",
    "Range": "Japan",
    "Image": "--",
    "Description": "--",
    "Type": "land",
    "latitude":"35.82",
    "longitude":"138.76",
    "latlong":"35.82,138.76"
  },
  {
    "_id": "57ab8f211eff02897b163f56",
    "Common name": "Japanese sea lion",
    "Scientific name": "Zalophus japonicus",
    "date": "1974-01-01T00:00:00Z",
    "Range": "Sea of Japan",
    "Image": "--",
    "Description": "--",
    "Type": "land",
    "latitude":"35.82",
    "longitude":"138.76",
    "latlong":"35.82,138.76"
  },
  {
    "_id": "57ab8f211eff02897b163f57",
    "Common name": "Javan tiger",
    "Scientific name": "Panthera tigris sondaica",
    "date": "1970-01-01T00:00:00Zs",
    "Range": "Indonesia (Java)",
    "Image": "--",
    "Description": "--",
    "Type": "land",
    "latitude":"-7.24",
    "longitude":"110.57",
    "latlong":"-7.24,110.57"
  },
  {
    "_id": "57ab8f211eff02897b163f58",
    "Common name": "Northern Sumatran rhinoceros",
    "Scientific name": "Dicerorhinus sumatrensis lasiotis",
    "date": "Unkn-01-01T00:00:00Zown",
    "Range": "Bangladesh, Burma (Myanmar), and India",
    "Image": "--",
    "Description": "--",
    "Type": "land",
    "latitude":"23.21",
    "longitude":"92.89",
    "latlong":"23.21,92.89"
  },
  {
    "_id": "57ab8f211eff02897b163f59",
    "Common name": "Queen of Sheba's gazelle",
    "Scientific name": "Gazella bilkis",
    "date": "1951-01-01T00:00:00Z",
    "Range": "Yemen",
    "Image": "--",
    "Description": "--",
    "Type": "land",
    "latitude":"15.29",
    "longitude":"46.73",
    "latlong":"15.29,46.73"
  },
  {
    "_id": "57ab8f211eff02897b163f5a",
    "Common name": "Saudi gazelle",
    "Scientific name": "Gazella saudiya",
    "date": "Unkn-01-01T00:00:00Zown",
    "Range": "Arabian Peninsula",
    "Image": "--",
    "Description": "--",
    "Type": "land",
    "latitude":"18.88",
    "longitude":"47.51",
    "latlong":"18.88,47.51"
  },
  {
    "_id": "57ab8f211eff02897b163f5b",
    "Common name": "Schomburgk's deer",
    "Scientific name": "Rucervus schomburgki",
    "date": "1938-01-01T00:00:00Z",
    "Range": "Thailand",
    "Image": "--",
    "Description": "--",
    "Type": "land",
    "latitude":"16.62",
    "longitude":"100.34",
    "latlong":"16.62,100.34"
  },
  {
    "_id": "57ab8f211eff02897b163f5c",
    "Common name": "Steller's sea cow",
    "Scientific name": "Hydrodamalis gigas",
    "date": "1768-01-01T00:00:00Z",
    "Range": "Russia (Commander Islands)",
    "Image": "--",
    "Description": "--",
    "Type": "land",
    "latitude":"62.73",
    "longitude":"98.44",
    "latlong":"62.73,98.44"
  },
  {
    "_id": "57ab8f211eff02897b163f5d",
    "Common name": "Sturdee's pipistrelle",
    "Scientific name": "Pipistrellus sturdeei",
    "date": "Unkn-01-01T00:00:00Zown",
    "Range": "Japan (Bonin Islands)",
    "Image": "--",
    "Description": "--",
    "Type": "land",
    "latitude":"27.03",
    "longitude":"142.20",
    "latlong":"27.03,142.20"
  },
  {
    "_id": "57ab8f211eff02897b163f5e",
    "Common name": "Verhoeven's giant tree rat",
    "Scientific name": "Neofelis nebulosa brachyura",
    "date": "1500-01-01T00:00:00Z",
    "Range": "Indonesia (Flores)",
    "Image": "--",
    "Description": "--",
    "Type": "land",
    "latitude":"-8.77",
    "longitude":"121.06",
    "latlong":"-8.77,121.06"
  },
  {
    "_id": "57ab8f211eff02897b163f5f",
    "Common name": "Vietnamese Javan rhinoceros",
    "Scientific name": "Rhinoceros sondaicus annamiticus",
    "date": "2010-01-01T00:00:00Z",
    "Range": "Vietnam to Malaysia",
    "Image": "--",
    "Description": "--",
    "Type": "land",
    "latitude":"4.57",
    "longitude":"103.15",
    "latlong":"4.57,103.15"
  },
  {
    "_id": "57ab8f3f1eff02897b163f60",
    "Common name": "Aurochs",
    "Scientific name": "Bos primigenius",
    "date": "Indi-01-01T00:00:00Za (9000), Eurasia (1627)",
    "Range": "Northern Asia and Indian Sontinent",
    "Image": "--",
    "Description": "--",
    "Type": "land",
    "latitude":"49.10",
    "longitude":"108.78",
    "latlong":"49.10,108.78"
  },
  {
    "_id": "57ab8f3f1eff02897b163f61",
    "Common name": "Bali tiger",
    "Scientific name": "Panthera tigris balica",
    "date": "1937-01-01T00:00:00Z",
    "Range": "Indonesia (Bali)",
    "Image": "--",
    "Description": "--",
    "Type": "land",
    "latitude":"-8.34",
    "longitude":"115.08",
    "latlong":"-8.34,115.08"
  },
  {
    "_id": "57ab8f3f1eff02897b163f62",
    "Common name": "Buhler's coryphomys",
    "Scientific name": "Coryphomys buehleri",
    "date": "1500-01-01T00:00:00Z",
    "Range": "Indonesia (Timor)",
    "Image": "--",
    "Description": "--",
    "Type": "land",
    "latitude":"-9.88",
    "longitude":"124.33",
    "latlong":"-9.88,124.33"
  },
  {
    "_id": "57ab8f3f1eff02897b163f63",
    "Common name": "Caspian tiger",
    "Scientific name": "Panthera tigris virgata",
    "date": "1970-01-01T00:00:00Z",
    "Range": "Turkey to China",
    "Image": "--",
    "Description": "--",
    "Type": "land",
    "latitude":"38.7",
    "longitude":"66.46",
    "latlong":"38.7,66.46"
  },
  {
    "_id": "57ab8f3f1eff02897b163f64",
    "Common name": "Caucasian moose",
    "Scientific name": "Alces alces caucasicus",
    "date": "1850-01-01T00:00:00Z",
    "Range": "Caucasus Mountains, Iran and Turkey",
    "Image": "--",
    "Description": "--",
    "Type": "land",
    "latitude":"42.56",
    "longitude":"44.03",
    "latlong":"42.56,44.03"
  },
  {
    "_id": "57ab8f3f1eff02897b163f65",
    "Common name": "Caucasian wisent",
    "Scientific name": "Bison bonasus caucasicus",
    "date": "1925-01-01T00:00:00Z",
    "Range": "Caucasus Mountains",
    "Image": "--",
    "Description": "--",
    "Type": "land",
    "latitude":"42.56",
    "longitude":"44.03",
    "latlong":"42.56,44.03"
  },
  {
    "_id": "57ab8f3f1eff02897b163f66",
    "Common name": "Cebu warty pig",
    "Scientific name": "Sus cebifrons cebifrons",
    "date": "1951-01-01T00:00:00Z",
    "Ran": "Queen of Sheba's gazelle",
    "Range": "Yemen",
    "Image": "--",
    "Description": "--",
    "Type": "land",
    "latitude":"15.29",
    "longitude":"46.73",
    "latlong":"15.29,46.73"
  },
  {
    "_id": "57ab8f3f1eff02897b163f67",
    "Common name": "Saudi gazelle",
    "Scientific name": "Gazella saudiya",
    "date": "Unkn-01-01T00:00:00Zown",
    "Range": "Arabian Peninsula",
    "Image": "--",
    "Description": "--",
    "Type": "land",
    "latitude":"18.88",
    "longitude":"47.51",
    "latlong":"18.88,47.51"
  },
  {
    "_id": "57ab8f3f1eff02897b163f68",
    "Common name": "Schomburgk's deer",
    "Scientific name": "Rucervus schomburgki",
    "date": "1938-01-01T00:00:00Z",
    "Range": "Thailand",
    "Image": "--",
    "Description": "--",
    "Type": "land",
    "latitude":"16.62",
    "longitude":"100.34",
    "latlong":"16.62,100.34"
  },
  {
    "_id": "57ab8f3f1eff02897b163f69",
    "Common name": "Steller's sea cow",
    "Scientific name": "Hydrodamalis gigas",
    "date": "1768-01-01T00:00:00Z",
    "Range": "Russia (Commander Islands)",
    "Image": "--",
    "Description": "--",
    "Type": "land",
    "latitude":"62.73",
    "longitude":"98.44",
    "latlong":"62.73,98.44"
  },
  {
    "_id": "57ab8f3f1eff02897b163f6a",
    "Common name": "Sturdee's pipistrelle",
    "Scientific name": "Pipistrellus sturdeei",
    "date": "Unkn-01-01T00:00:00Zown",
    "Range": "Japan (Bonin Islands)",
    "Image": "--",
    "Description": "--",
    "Type": "land",
    "latitude":"27.03",
    "longitude":"142.20",
    "latlong":"27.03,142.20"
  },
  {
    "_id": "57ab8f3f1eff02897b163f6b",
    "Common name": "Verhoeven's giant tree rat",
    "Scientific name": "Neofelis nebulosa brachyura",
    "date": "1500-01-01T00:00:00Z",
    "Range": "Indonesia (Flores)",
    "Image": "--",
    "Description": "--",
    "Type": "land",
    "latitude":"-8.77",
    "longitude":"121.06",
    "latlong":"-8.77,121.06"
  },
  {
    "_id": "57ab8f3f1eff02897b163f6c",
    "Common name": "Vietnamese Javan rhinoceros",
    "Scientific name": "Rhinoceros sondaicus annamiticus",
    "date": "2010-01-01T00:00:00Z",
    "Range": "Vietnam to Malaysia",
    "Image": "--",
    "Description": "--",
    "Type": "land",
    "latitude":"4.57",
    "longitude":"103.15",
    "latlong":"4.57,103.15"
  },
  {
    "_id": "57ab8f681eff02897b163f73",
    "Common name": "Great auk",
    "Scientific name": "Pinguinus impennis",
    "date": "1854-01-01T00:00:00Z",
    "Range": "Iceland and Northern European Coast",
    "Image": "--",
    "Type": "air",
    "latitude":"64.87",
    "longitude":"-18.81",
    "latlong" : "64.87,-18.81"
  },
  {
    "_id": "57ab8f681eff02897b163f74",
    "Common name": "Pied raven",
    "Scientific name": "Corvus corax varius",
    "date": "1950-01-01T00:00:00Z",
    "Range": "Denmark (Faroe Islands)",
    "Image": "--",
    "Type": "air",
    "latitude":"62.20",
    "longitude":"-7.08",
    "latlong":"62.20,-7.08"
  }
]
